$GPGGA,170033.000,4633.8185,N,00023.0971,E,1,23,0.4,120.9,M,48.4,M,,*55
$GPVTG,83.5,T,,M,0.0,N,0.0,K,A*33
$GPGSV,3,1,11,02,44,133,42,11,18,042,30,12,22,090,30,18,14,170,32*70
$GPGSV,3,2,11,20,05,067,15,22,27,252,34,25,51,086,42,26,23,286,40*7B
$GPGSV,3,3,11,29,85,121,40,31,60,286,43,32,12,221,34,36,28,140,38*73
$GLGSV,2,1,07,71,08,349,35,78,39,110,41,79,73,003,37,80,24,312,30*67
$GLGSV,2,2,07,81,65,153,39,82,20,190,32,88,44,042,33*52
$GAGSV,2,1,07,101,19,097,32,105,23,280,36,110,06,182,23,124,48,294,38*62
$GAGSV,2,2,07,126,26,045,27,131,73,065,38,133,49,104,39*66
$BDGSV,1,1,04,211,70,131,33,223,62,300,40,225,62,134,38,234,61,073,44*60
$GPGSA,A,3,29,31,25,02,22,26,12,11,18,32,,,0.8,0.4,0.6*3B
$GNGSA,A,3,71,78,79,80,81,82,,,,,,,0.8,0.4,0.6*2A
$GAGSA,A,3,101,105,110,124,131,,,,,,,,0.8,0.4,0.6*19
$BDGSA,A,3,211,225,,,,,,,,,,,0.8,0.4,0.6*2E
$GPRMC,170033.000,A,4633.8185,N,00023.0971,E,0.0,83.5,060123,,,A*58
$GPGGA,170034.000,4633.8185,N,00023.0971,E,1,23,0.4,120.9,M,48.4,M,,*52
$GPVTG,83.5,T,,M,0.0,N,0.0,K,A*33
$GPGSV,3,1,11,02,44,133,42,11,18,042,31,12,22,090,30,18,14,170,32*71
$GPGSV,3,2,11,20,05,067,14,22,27,252,34,25,51,086,42,26,23,286,40*7A
$GPGSV,3,3,11,29,85,121,40,31,60,286,43,32,12,221,34,36,28,140,38*73
$GLGSV,2,1,07,71,08,349,35,78,39,110,41,79,73,003,37,80,24,312,30*67
$GLGSV,2,2,07,81,65,153,39,82,20,190,32,88,44,042,31*50
$GAGSV,2,1,07,101,19,097,32,105,23,280,36,110,06,182,23,124,48,294,39*63
$GAGSV,2,2,07,126,26,045,28,131,73,065,39,133,49,104,39*68
$BDGSV,1,1,04,211,70,131,34,223,62,300,41,225,62,134,39,234,61,073,44*67
$GPGSA,A,3,29,31,25,02,22,26,12,11,18,32,,,0.8,0.4,0.6*3B
$GNGSA,A,3,71,78,79,80,81,82,,,,,,,0.8,0.4,0.6*2A
$GAGSA,A,3,101,105,110,124,131,,,,,,,,0.8,0.4,0.6*19
$BDGSA,A,3,211,225,,,,,,,,,,,0.8,0.4,0.6*2E
$GPRMC,170034.000,A,4633.8185,N,00023.0971,E,0.0,83.5,060123,,,A*5F
$GPGGA,170035.000,4633.8185,N,00023.0971,E,1,24,0.4,120.9,M,48.4,M,,*54
$GPVTG,83.5,T,,M,0.0,N,0.0,K,A*33
$GPGSV,3,1,11,02,44,133,41,11,18,042,31,12,22,090,30,18,14,170,32*72
$GPGSV,3,2,11,20,05,067,13,22,27,252,34,25,51,086,41,26,23,286,40*7E
$GPGSV,3,3,11,29,85,121,40,31,60,286,43,32,12,221,35,36,28,140,38*72
$GLGSV,2,1,07,71,08,349,35,78,39,110,41,79,73,003,37,80,24,312,30*67
$GLGSV,2,2,07,81,65,153,39,82,20,190,32,88,44,042,31*50
$GAGSV,2,1,07,101,19,097,32,105,23,280,36,110,06,182,23,124,48,294,39*63
$GAGSV,2,2,07,126,26,045,28,131,73,065,39,133,49,104,39*68
$BDGSV,1,1,04,211,70,131,34,223,62,300,41,225,62,134,39,234,61,073,43*60
$GPGSA,A,3,29,31,25,02,22,26,12,11,18,32,,,0.8,0.4,0.6*3B
$GNGSA,A,3,71,78,79,80,81,82,,,,,,,0.8,0.4,0.6*2A
$GAGSA,A,3,101,105,110,124,126,131,,,,,,,0.8,0.4,0.6*2C
$BDGSA,A,3,211,225,,,,,,,,,,,0.8,0.4,0.6*2E
$GPRMC,170035.000,A,4633.8185,N,00023.0971,E,0.0,83.5,060123,,,A*5E
$GPGGA,170036.000,4633.8185,N,00023.0971,E,1,24,0.4,120.9,M,48.4,M,,*57
$GPVTG,83.5,T,,M,0.0,N,0.0,K,A*33
$GPGSV,3,1,11,02,44,133,41,11,18,042,31,12,22,090,33,18,14,170,33*70
$GPGSV,3,2,11,20,05,067,13,22,27,252,34,25,51,086,41,26,23,286,40*7E
$GPGSV,3,3,11,29,85,121,40,31,60,286,43,32,12,221,35,36,28,140,38*72
$GLGSV,2,1,07,71,08,349,35,78,39,110,41,79,73,003,37,80,24,312,34*63
$GLGSV,2,2,07,81,65,153,39,82,20,190,32,88,44,042,34*55
$GAGSV,2,1,07,101,19,097,32,105,23,280,36,110,06,182,23,124,48,294,39*63
$GAGSV,2,2,07,126,26,045,31,131,73,065,39,133,49,104,39*60
$BDGSV,1,1,04,211,70,131,34,223,62,300,41,225,62,134,39,234,61,073,43*60
$GPGSA,A,3,29,31,25,02,22,26,12,11,18,32,,,0.8,0.4,0.6*3B
$GNGSA,A,3,71,78,79,80,81,82,88,,,,,,0.8,0.4,0.6*2A
$GAGSA,A,3,101,105,110,124,131,,,,,,,,0.8,0.4,0.6*19
$BDGSA,A,3,211,225,,,,,,,,,,,0.8,0.4,0.6*2E
$GPRMC,170036.000,A,4633.8185,N,00023.0971,E,0.0,83.5,060123,,,A*5D
$GPGGA,170037.000,4633.8185,N,00023.0971,E,1,24,0.4,120.9,M,48.4,M,,*56
$GPVTG,83.5,T,,M,0.0,N,0.0,K,A*33
$GPGSV,3,1,11,02,44,133,41,04,00,340,14,11,18,042,32,12,22,090,33*7F
$GPGSV,3,2,11,18,14,170,33,22,27,252,34,25,51,086,41,26,23,286,39*7E
$GPGSV,3,3,11,29,85,121,40,31,60,286,42,32,12,221,34,36,28,140,38*72
$GLGSV,2,1,07,71,08,349,35,78,39,110,41,79,73,003,37,80,24,312,36*61
$GLGSV,2,2,07,81,65,153,39,82,20,190,32,88,44,042,37*56
$GAGSV,2,1,07,101,19,097,32,105,23,280,36,110,06,182,23,124,48,294,39*63
$GAGSV,2,2,07,126,26,045,37,131,73,065,39,133,49,104,39*66
$BDGSV,1,1,04,211,70,131,34,223,62,300,40,225,62,134,39,234,61,073,43*61
$GPGSA,A,3,29,31,25,02,22,26,12,11,18,32,,,0.8,0.4,0.6*3B
$GNGSA,A,3,71,78,79,80,81,82,88,,,,,,0.8,0.4,0.6*2A
$GAGSA,A,3,101,105,110,124,131,,,,,,,,0.8,0.4,0.6*19
$BDGSA,A,3,211,225,,,,,,,,,,,0.8,0.4,0.6*2E
$GPRMC,170037.000,A,4633.8185,N,00023.0971,E,0.0,83.5,060123,,,A*5C
$GPGGA,170038.000,4633.8185,N,00023.0971,E,1,22,0.4,120.9,M,48.4,M,,*5F
$GPVTG,83.5,T,,M,0.0,N,0.0,K,A*33
$GPGSV,3,1,11,02,44,133,41,04,00,340,14,11,18,042,32,12,22,090,33*7F
$GPGSV,3,2,11,18,14,170,33,22,27,252,35,25,51,086,41,26,23,286,39*7F
$GPGSV,3,3,11,29,85,121,40,31,60,286,40,32,12,221,33,36,28,140,38*77
$GLGSV,2,1,07,71,08,349,35,78,39,110,41,79,73,003,37,80,24,312,36*61
$GLGSV,2,2,07,81,65,153,39,82,20,190,32,88,44,042,39*58
$GAGSV,2,1,07,101,19,097,32,105,23,280,36,110,06,182,23,124,48,294,39*63
$GAGSV,2,2,07,126,26,045,37,131,73,065,39,133,49,104,40*68
$BDGSV,1,1,04,211,70,131,34,223,62,300,39,225,62,134,39,234,61,073,42*6E
$GPGSA,A,3,29,25,02,22,26,12,11,18,,,,,0.8,0.4,0.6*38
$GNGSA,A,3,71,78,79,80,81,82,88,,,,,,0.8,0.4,0.6*2A
$GAGSA,A,3,101,105,110,124,131,,,,,,,,0.8,0.4,0.6*19
$BDGSA,A,3,211,225,,,,,,,,,,,0.8,0.4,0.6*2E
$GPRMC,170038.000,A,4633.8185,N,00023.0971,E,0.0,83.5,060123,,,A*53
$GPGGA,170039.000,4633.8185,N,00023.0971,E,1,23,0.4,120.9,M,48.4,M,,*5F
$GPVTG,83.5,T,,M,0.0,N,0.0,K,A*33
$GPGSV,3,1,11,02,44,133,41,04,00,340,13,11,18,042,32,12,22,090,33*78
$GPGSV,3,2,11,18,14,170,34,22,27,252,35,25,51,086,40,26,23,286,39*79
$GPGSV,3,3,11,29,85,121,40,31,60,286,39,32,12,221,31,36,28,140,39*7A
$GLGSV,2,1,07,71,08,349,35,78,39,110,41,79,73,003,36,80,24,312,36*60
$GLGSV,2,2,07,81,65,153,39,82,20,190,32,88,44,042,40*56
$GAGSV,2,1,08,101,19,097,31,103,08,329,21,105,23,280,36,110,06,182,23*60
$GAGSV,2,2,08,124,48,294,39,126,26,045,36,131,73,065,39,133,49,104,40*68
$BDGSV,1,1,04,211,70,131,34,223,62,300,38,225,62,134,39,234,61,073,42*6F
$GPGSA,A,3,29,25,02,22,26,12,11,18,,,,,0.8,0.4,0.6*38
$GNGSA,A,3,71,78,79,80,81,82,88,,,,,,0.8,0.4,0.6*2A
$GAGSA,A,3,101,105,110,124,126,131,,,,,,,0.8,0.4,0.6*2C
$BDGSA,A,3,211,225,,,,,,,,,,,0.8,0.4,0.6*2E
$GPRMC,170039.000,A,4633.8185,N,00023.0971,E,0.0,83.5,060123,,,A*52
$GPGGA,170040.000,4633.8185,N,00023.0971,E,1,23,0.4,120.9,M,48.4,M,,*51
$GPVTG,83.5,T,,M,0.0,N,0.0,K,A*33
$GPGSV,3,1,11,02,44,133,41,04,00,340,13,11,18,042,33,12,22,090,33*79
$GPGSV,3,2,11,18,14,170,34,22,27,252,35,25,51,086,40,26,23,286,39*79
$GPGSV,3,3,11,29,85,121,40,31,60,286,37,32,12,221,31,36,28,140,39*74
$GLGSV,2,1,07,71,08,349,35,78,39,110,40,79,73,003,36,80,24,312,36*61
$GLGSV,2,2,07,81,65,153,38,82,20,190,31,88,44,042,40*54
$GAGSV,2,1,08,101,19,097,31,103,08,329,22,105,23,280,36,110,06,182,23*63
$GAGSV,2,2,08,124,48,294,39,126,26,045,36,131,73,065,39,133,49,104,41*69
$BDGSV,1,1,04,211,70,131,35,223,62,300,38,225,62,134,39,234,61,073,42*6E
$GPGSA,A,3,29,25,02,22,26,12,11,18,,,,,0.8,0.4,0.6*38
$GNGSA,A,3,71,78,79,80,81,82,88,,,,,,0.8,0.4,0.6*2A
$GAGSA,A,3,101,105,110,124,126,131,,,,,,,0.8,0.4,0.6*2C
$BDGSA,A,3,211,225,,,,,,,,,,,0.8,0.4,0.6*2E
$GPRMC,170040.000,A,4633.8185,N,00023.0971,E,0.0,83.5,060123,,,A*5C
$GPGGA,170041.000,4633.8185,N,00023.0971,E,1,24,0.4,120.9,M,48.4,M,,*57
$GPVTG,83.5,T,,M,0.0,N,0.0,K,A*33
$GPGSV,3,1,10,02,44,133,41,11,18,042,34,12,22,090,33,18,14,170,34*73
$GPGSV,3,2,10,22,27,252,36,25,51,086,39,26,23,286,39,29,85,121,40*78
$GPGSV,3,3,10,31,60,286,36,32,12,221,30,36,28,140,39*45
$GLGSV,2,1,07,71,08,349,35,78,39,110,40,79,73,003,35,80,24,312,35*61
$GLGSV,2,2,07,81,65,153,38,82,20,190,31,88,44,042,41*55
$GAGSV,2,1,08,101,19,097,30,103,08,329,22,105,23,280,36,110,06,182,23*62
$GAGSV,2,2,08,124,48,294,39,126,26,045,36,131,73,065,39,133,49,104,41*69
$BDGSV,1,1,04,211,70,131,35,223,62,300,37,225,62,134,39,234,61,073,42*61
$GPGSA,A,3,29,25,02,22,26,12,11,18,,,,,0.8,0.4,0.6*38
$GNGSA,A,3,71,78,79,80,81,82,88,,,,,,0.8,0.4,0.6*2A
$GAGSA,A,3,101,103,105,110,124,126,131,,,,,,0.8,0.4,0.6*1E
$BDGSA,A,3,211,225,,,,,,,,,,,0.8,0.4,0.6*2E
$GPRMC,170041.000,A,4633.8185,N,00023.0971,E,0.0,83.5,060123,,,A*5D
$GPGGA,170042.000,4633.8185,N,00023.0971,E,1,24,0.4,120.9,M,48.4,M,,*54
$GPVTG,83.5,T,,M,0.0,N,0.0,K,A*33
$GPGSV,3,1,10,02,44,133,41,11,18,042,34,12,22,090,33,18,14,170,34*73
$GPGSV,3,2,10,22,27,252,36,25,51,086,39,26,23,286,39,29,85,121,40*78
$GPGSV,3,3,10,31,60,286,35,32,12,221,29,36,28,140,39*4E
$GLGSV,2,1,07,71,08,349,35,78,39,110,40,79,73,003,35,80,24,312,34*60
$GLGSV,2,2,07,81,65,153,38,82,20,190,31,88,44,042,41*55
$GAGSV,2,1,08,101,19,097,30,103,08,329,22,105,23,280,36,110,06,182,23*62
$GAGSV,2,2,08,124,48,294,38,126,26,045,36,131,73,065,39,133,49,104,41*68
$BDGSV,1,1,04,211,70,131,35,223,62,300,37,225,62,134,38,234,61,073,41*63
$GPGSA,A,3,29,25,02,22,26,12,11,18,32,,,,0.8,0.4,0.6*39
$GNGSA,A,3,71,78,79,80,81,82,88,,,,,,0.8,0.4,0.6*2A
$GAGSA,A,3,101,103,105,110,124,131,,,,,,,0.8,0.4,0.6*2B
$BDGSA,A,3,211,225,,,,,,,,,,,0.8,0.4,0.6*2E
$GPRMC,170042.000,A,4633.8185,N,00023.0971,E,0.0,83.5,060123,,,A*5E
$GPGGA,170043.000,4633.8185,N,00023.0971,E,1,24,0.4,120.9,M,48.4,M,,*55
$GPVTG,83.5,T,,M,0.0,N,0.0,K,A*33
$GPGSV,3,1,10,02,44,133,41,11,18,042,34,12,22,090,33,18,14,170,34*73
$GPGSV,3,2,10,22,27,252,36,25,51,086,39,26,23,286,39,29,85,121,40*78
$GPGSV,3,3,10,31,60,286,34,32,12,221,29,36,28,140,39*4F
$GLGSV,2,1,07,71,08,349,35,78,39,110,40,79,73,003,34,80,24,312,34*61
$GLGSV,2,2,07,81,65,153,38,82,20,190,30,88,44,042,41*54
$GAGSV,2,1,08,101,19,097,30,103,08,329,22,105,23,280,36,110,06,182,23*62
$GAGSV,2,2,08,124,48,294,38,126,26,045,36,131,73,065,39,133,49,104,41*68
$BDGSV,1,1,04,211,70,131,35,223,62,300,36,225,62,134,38,234,61,073,41*62
$GPGSA,A,3,29,31,25,02,22,26,12,11,18,32,,,0.8,0.4,0.6*3B
$GNGSA,A,3,71,78,79,80,81,88,,,,,,,0.8,0.4,0.6*20
$GAGSA,A,3,101,103,105,110,124,131,,,,,,,0.8,0.4,0.6*2B
$BDGSA,A,3,211,225,,,,,,,,,,,0.8,0.4,0.6*2E
$GPRMC,170043.000,A,4633.8185,N,00023.0971,E,0.0,83.5,060123,,,A*5F
$GPGGA,170044.000,4633.8185,N,00023.0971,E,1,24,0.4,120.9,M,48.4,M,,*52
$GPVTG,83.5,T,,M,0.0,N,0.0,K,A*33
$GPGSV,3,1,10,02,44,133,41,11,18,042,34,12,22,090,33,18,14,170,35*72
$GPGSV,3,2,10,22,27,252,36,25,51,086,38,26,23,286,39,29,85,121,40*79
$GPGSV,3,3,10,31,60,286,34,32,12,221,28,36,28,140,39*4E
$GLGSV,2,1,07,71,08,349,35,78,39,110,40,79,73,003,34,80,24,312,34*61
$GLGSV,2,2,07,81,65,153,39,82,20,190,30,88,44,042,41*55
$GAGSV,2,1,08,101,19,097,29,103,08,329,22,105,23,280,36,110,06,182,22*6B
$GAGSV,2,2,08,124,48,294,37,126,26,045,36,131,73,065,39,133,49,104,41*67
$BDGSV,1,1,04,211,70,131,35,223,62,300,36,225,62,134,38,234,61,073,41*62
$GPGSA,A,3,29,31,25,02,22,26,12,11,18,32,,,0.8,0.4,0.6*3B
$GNGSA,A,3,71,78,79,80,81,88,,,,,,,0.8,0.4,0.6*20
$GAGSA,A,3,101,103,105,110,124,131,,,,,,,0.8,0.4,0.6*2B
$BDGSA,A,3,211,225,,,,,,,,,,,0.8,0.4,0.6*2E
$GPRMC,170044.000,A,4633.8185,N,00023.0971,E,0.0,83.5,060123,,,A*58
$GPGGA,170045.000,4633.8185,N,00023.0971,E,1,24,0.4,120.9,M,48.4,M,,*53
$GPVTG,83.5,T,,M,0.0,N,0.0,K,A*33
$GPGSV,3,1,10,02,44,133,41,11,18,042,34,12,22,090,33,18,14,170,35*72
$GPGSV,3,2,10,22,27,252,36,25,51,086,38,26,23,286,39,29,85,121,40*79
$GPGSV,3,3,10,31,60,286,33,32,12,221,28,36,28,140,39*49
$GLGSV,2,1,07,71,08,349,35,78,39,110,40,79,73,003,34,80,24,312,33*66
$GLGSV,2,2,07,81,65,153,39,82,20,190,30,88,44,042,41*55
$GAGSV,2,1,08,101,19,097,29,103,08,329,22,105,23,280,36,110,06,182,23*6A
$GAGSV,2,2,08,124,48,294,37,126,26,045,36,131,73,065,39,133,49,104,41*67
$BDGSV,1,1,04,211,70,131,35,223,62,300,36,225,62,134,38,234,61,073,40*63
$GPGSA,A,3,29,31,25,02,22,26,12,11,18,32,,,0.8,0.4,0.6*3B
$GNGSA,A,3,71,78,79,80,81,88,,,,,,,0.8,0.4,0.6*20
$GAGSA,A,3,101,103,105,110,124,131,,,,,,,0.8,0.4,0.6*2B
$BDGSA,A,3,211,225,,,,,,,,,,,0.8,0.4,0.6*2E
$GPRMC,170045.000,A,4633.8185,N,00023.0971,E,0.0,83.5,060123,,,A*59
$GPGGA,170046.000,4633.8185,N,00023.0971,E,1,24,0.4,120.9,M,48.4,M,,*50
$GPVTG,83.5,T,,M,0.0,N,0.0,K,A*33
$GPGSV,3,1,10,02,44,133,41,11,18,042,34,12,22,090,33,18,14,170,35*72
$GPGSV,3,2,10,22,27,252,36,25,51,086,38,26,23,286,39,29,85,121,40*79
$GPGSV,3,3,10,31,60,286,33,32,12,221,27,36,28,140,39*46
$GLGSV,2,1,07,71,08,349,35,78,39,110,40,79,73,003,33,80,24,312,33*61
$GLGSV,2,2,07,81,65,153,39,82,20,190,29,88,44,042,41*5D
$GAGSV,2,1,08,101,19,097,29,103,08,329,22,105,23,280,36,110,06,182,23*6A
$GAGSV,2,2,08,124,48,294,37,126,26,045,36,131,73,065,39,133,49,104,41*67
$BDGSV,1,1,04,211,70,131,35,223,62,300,35,225,62,134,38,234,61,073,40*60
$GPGSA,A,3,29,31,25,02,22,26,12,11,18,32,,,0.8,0.4,0.6*3B
$GNGSA,A,3,71,78,79,80,81,88,,,,,,,0.8,0.4,0.6*20
$GAGSA,A,3,101,103,105,110,124,131,,,,,,,0.8,0.4,0.6*2B
$BDGSA,A,3,211,225,,,,,,,,,,,0.8,0.4,0.6*2E
$GPRMC,170046.000,A,4633.8185,N,00023.0971,E,0.0,83.5,060123,,,A*5A
$GPGGA,170047.000,4633.8185,N,00023.0971,E,1,23,0.4,120.9,M,48.4,M,,*56
$GPVTG,83.5,T,,M,0.0,N,0.0,K,A*33
$GPGSV,3,1,10,02,44,133,41,11,18,042,34,12,22,090,33,18,14,170,35*72
$GPGSV,3,2,10,22,27,252,36,25,51,086,37,26,23,286,39,29,85,121,40*76
$GPGSV,3,3,10,31,60,286,32,32,12,221,27,36,28,140,39*47
$GLGSV,2,1,07,71,08,349,34,78,39,110,40,79,73,003,33,80,24,312,33*60
$GLGSV,2,2,07,81,65,153,39,82,20,190,29,88,44,042,41*5D
$GAGSV,2,1,08,101,19,097,29,103,08,329,22,105,23,280,35,110,06,182,23*69
$GAGSV,2,2,08,124,48,294,37,126,26,045,36,131,73,065,39,133,49,104,41*67
$BDGSV,1,1,04,211,70,131,35,223,62,300,35,225,62,134,39,234,61,073,40*61
$GPGSA,A,3,29,31,25,02,22,12,11,18,32,,,,0.8,0.4,0.6*3F
$GNGSA,A,3,71,78,79,80,81,88,,,,,,,0.8,0.4,0.6*20
$GAGSA,A,3,101,103,105,110,124,131,,,,,,,0.8,0.4,0.6*2B
$BDGSA,A,3,211,225,,,,,,,,,,,0.8,0.4,0.6*2E
$GPRMC,170047.000,A,4633.8185,N,00023.0971,E,0.0,83.5,060123,,,A*5B
$GPGGA,170048.000,4633.8185,N,00023.0971,E,1,24,0.4,120.9,M,48.4,M,,*5E
$GPVTG,83.5,T,,M,0.0,N,0.0,K,A*33
$GPGSV,3,1,10,02,44,133,41,11,18,042,34,12,22,090,33,18,14,170,35*72
$GPGSV,3,2,10,22,27,252,36,25,51,086,37,26,23,286,38,29,85,121,40*77
$GPGSV,3,3,10,31,60,286,32,32,12,221,27,36,28,140,39*47
$GLGSV,2,1,07,71,08,349,34,78,39,110,40,79,73,003,33,80,24,312,33*60
$GLGSV,2,2,07,81,65,153,39,82,20,190,29,88,44,042,41*5D
$GAGSV,2,1,08,101,19,097,29,103,08,329,22,105,23,280,35,110,06,182,23*69
$GAGSV,2,2,08,124,48,294,36,126,26,045,36,131,73,065,39,133,49,104,41*66
$BDGSV,1,1,04,211,70,131,36,223,62,300,35,225,62,134,39,234,61,073,40*62
$GPGSA,A,3,29,31,25,02,22,12,11,18,32,,,,0.8,0.4,0.6*3F
$GNGSA,A,3,71,78,79,80,81,82,88,,,,,,0.8,0.4,0.6*2A
$GAGSA,A,3,101,103,105,110,124,131,,,,,,,0.8,0.4,0.6*2B
$BDGSA,A,3,211,225,,,,,,,,,,,0.8,0.4,0.6*2E
$GPRMC,170048.000,A,4633.8185,N,00023.0971,E,0.0,83.5,060123,,,A*54
$GPGGA,170049.000,4633.8173,N,00023.0973,E,1,24,0.4,119.3,M,48.4,M,,*54
$GPVTG,204.8,T,,M,1.1,N,2.0,K,A*01
$GPGSV,3,1,10,02,44,133,40,11,18,042,34,12,22,090,33,18,14,170,35*73
$GPGSV,3,2,10,22,27,252,36,25,51,086,37,26,23,286,37,29,85,121,40*78
$GPGSV,3,3,10,31,60,286,41,32,12,221,27,36,28,140,38*42
$GLGSV,2,1,07,71,08,349,34,78,39,110,40,79,73,003,33,80,24,312,36*65
$GLGSV,2,2,07,81,65,153,39,82,20,190,29,88,44,042,41*5D
$GAGSV,2,1,08,101,19,097,29,103,08,329,22,105,23,280,34,110,06,182,24*6F
$GAGSV,2,2,08,124,48,294,36,126,26,045,36,131,73,065,39,133,49,104,41*66
$BDGSV,2,1,05,211,70,131,36,213,21,073,37,223,62,300,35,225,62,134,40*6F
$BDGSV,2,2,05,234,61,073,40*6F
$GPGSA,A,3,29,31,25,02,22,26,12,11,18,32,,,0.8,0.4,0.6*3B
$GNGSA,A,3,71,78,79,80,81,88,,,,,,,0.8,0.4,0.6*20
$GAGSA,A,3,101,103,105,110,124,131,,,,,,,0.8,0.4,0.6*2B
$BDGSA,A,3,211,225,,,,,,,,,,,0.8,0.4,0.6*2E
$GPRMC,170049.000,A,4633.8173,N,00023.0973,E,1.1,204.8,060123,,,A*6E
$GPGGA,170050.000,4633.8166,N,00023.0971,E,1,24,0.4,118.7,M,48.4,M,,*5F
$GPVTG,205.2,T,,M,0.7,N,1.3,K,A*0D
$GPGSV,3,1,10,02,44,133,40,11,18,042,34,12,22,090,33,18,14,170,35*73
$GPGSV,3,2,10,22,27,252,36,25,51,086,37,26,23,286,36,29,85,121,40*79
$GPGSV,3,3,10,31,60,286,41,32,12,221,27,36,28,140,37*4D
$GLGSV,2,1,07,71,08,349,34,78,39,110,40,79,73,003,33,80,24,312,39*6A
$GLGSV,2,2,07,81,65,153,39,82,20,190,29,88,44,042,40*5C
$GAGSV,2,1,08,101,19,097,33,103,08,329,22,105,23,280,34,110,06,182,24*64
$GAGSV,2,2,08,124,48,294,36,126,26,045,36,131,73,065,39,133,49,104,41*66
$BDGSV,2,1,05,211,70,131,36,213,21,073,36,223,62,300,35,225,62,134,40*6E
$BDGSV,2,2,05,234,61,073,40*6F
$GPGSA,A,3,29,31,25,02,22,26,12,11,18,32,,,0.8,0.4,0.6*3B
$GNGSA,A,3,71,78,79,80,81,88,,,,,,,0.8,0.4,0.6*20
$GAGSA,A,3,101,103,105,110,124,131,,,,,,,0.8,0.4,0.6*2B
$BDGSA,A,3,211,225,,,,,,,,,,,0.8,0.4,0.6*2E
$GPRMC,170050.000,A,4633.8166,N,00023.0971,E,0.7,205.2,060123,,,A*6C
$GPGGA,170051.000,4633.8162,N,00023.0968,E,1,24,0.4,119.2,M,48.4,M,,*56
$GPVTG,207.1,T,,M,0.7,N,1.4,K,A*0B
$GPGSV,3,1,10,02,44,133,39,11,18,042,34,12,22,090,33,18,14,170,35*7D
$GPGSV,3,2,10,22,27,252,36,25,51,086,36,26,23,286,36,29,85,121,39*76
$GPGSV,3,3,10,31,60,286,40,32,12,221,27,36,28,140,37*4C
$GLGSV,2,1,07,71,08,349,33,78,39,110,40,79,73,004,32,80,25,312,39*6A
$GLGSV,2,2,07,81,65,153,39,82,20,190,36,88,44,042,40*52
$GAGSV,2,1,08,101,19,097,33,103,08,329,22,105,23,280,34,110,06,182,31*60
$GAGSV,2,2,08,124,48,294,40,126,26,045,36,131,73,065,39,133,49,104,41*67
$BDGSV,2,1,05,211,70,131,36,213,21,073,36,223,62,300,35,225,62,134,40*6E
$BDGSV,2,2,05,234,61,073,39*61
$GPGSA,A,3,29,31,25,02,22,26,12,11,18,32,,,0.8,0.4,0.6*3B
$GNGSA,A,3,71,78,79,80,81,88,,,,,,,0.8,0.4,0.6*20
$GAGSA,A,3,101,103,105,110,124,131,,,,,,,0.8,0.4,0.6*2B
$BDGSA,A,3,211,225,,,,,,,,,,,0.8,0.4,0.6*2E
$GPRMC,170051.000,A,4633.8162,N,00023.0968,E,0.7,207.1,060123,,,A*60
$GPGGA,170052.000,4633.8161,N,00023.0967,E,1,24,0.4,119.0,M,48.4,M,,*5B
$GPVTG,207.2,T,,M,0.0,N,0.0,K,A*0A
$GPGSV,3,1,10,02,44,133,39,11,18,042,34,12,22,090,33,18,14,170,37*7F
$GPGSV,3,2,10,22,27,252,36,25,51,086,36,26,23,286,35,29,85,121,39*75
$GPGSV,3,3,10,31,60,286,40,32,12,221,28,36,28,140,37*43
$GLGSV,2,1,07,71,08,349,33,78,39,110,40,79,73,004,32,80,25,312,39*6A
$GLGSV,2,2,07,81,65,153,38,82,20,190,37,88,44,042,40*52
$GAGSV,2,1,08,101,19,097,33,103,08,329,22,105,23,280,33,110,06,182,33*65
$GAGSV,2,2,08,124,48,294,41,126,26,045,36,131,73,065,39,133,49,104,41*66
$BDGSV,2,1,05,211,70,131,37,213,21,073,36,223,62,300,35,225,62,134,40*6F
$BDGSV,2,2,05,234,61,073,39*61
$GPGSA,A,3,29,31,25,02,22,26,12,11,18,32,,,0.8,0.4,0.6*3B
$GNGSA,A,3,71,78,79,80,81,88,,,,,,,0.8,0.4,0.6*20
$GAGSA,A,3,101,103,105,110,124,131,,,,,,,0.8,0.4,0.6*2B
$BDGSA,A,3,211,225,,,,,,,,,,,0.8,0.4,0.6*2E
$GPRMC,170052.000,A,4633.8161,N,00023.0967,E,0.0,207.2,060123,,,A*6B
$GPGGA,170053.000,4633.8161,N,00023.0967,E,1,24,0.4,119.0,M,48.4,M,,*5A
$GPVTG,207.1,T,,M,0.0,N,0.0,K,A*09
$GPGSV,3,1,10,02,44,133,39,11,18,042,34,12,22,090,33,18,14,170,40*7F
$GPGSV,3,2,10,22,27,252,36,25,51,086,36,26,23,286,35,29,85,121,38*74
$GPGSV,3,3,10,31,60,286,39,32,12,221,32,36,28,140,37*46
$GLGSV,2,1,07,71,08,349,33,78,39,110,40,79,73,004,32,80,25,312,39*6A
$GLGSV,2,2,07,81,65,153,38,82,20,190,37,88,44,042,40*52
$GAGSV,2,1,08,101,19,097,33,103,08,329,22,105,23,280,33,110,06,182,33*65
$GAGSV,2,2,08,124,48,294,41,126,26,045,35,131,73,065,39,133,49,104,41*65
$BDGSV,2,1,05,211,70,131,37,213,21,073,35,223,62,300,35,225,62,134,40*6C
$BDGSV,2,2,05,234,61,073,38*60
$GPGSA,A,3,29,31,25,02,22,26,12,11,18,32,,,0.8,0.4,0.6*3B
$GNGSA,A,3,71,78,79,80,81,88,,,,,,,0.8,0.4,0.6*20
$GAGSA,A,3,101,103,105,110,124,131,,,,,,,0.8,0.4,0.6*2B
$BDGSA,A,3,211,225,,,,,,,,,,,0.8,0.4,0.6*2E
$GPRMC,170053.000,A,4633.8161,N,00023.0967,E,0.0,207.1,060123,,,A*69
$GPGGA,170054.000,4633.8161,N,00023.0967,E,1,23,0.4,119.0,M,48.4,M,,*5A
$GPVTG,207.0,T,,M,0.0,N,0.0,K,A*08
$GPGSV,3,1,10,02,44,133,39,11,18,042,34,12,22,090,33,18,14,170,40*7F
$GPGSV,3,2,10,22,27,252,36,25,51,086,36,26,23,286,35,29,85,121,37*7B
$GPGSV,3,3,10,31,60,286,39,32,12,221,32,36,28,140,37*46
$GLGSV,2,1,07,71,08,349,33,78,39,110,39,79,73,004,32,80,25,312,39*64
$GLGSV,2,2,07,81,65,153,38,82,20,190,37,88,44,042,39*5C
$GAGSV,2,1,08,101,19,097,32,103,08,329,21,105,23,280,32,110,06,182,33*66
$GAGSV,2,2,08,124,48,294,41,126,26,045,35,131,73,065,38,133,49,104,41*64
$BDGSV,2,1,05,211,70,131,37,213,21,073,34,223,62,300,35,225,62,134,40*6D
$BDGSV,2,2,05,234,61,073,38*60
$GPGSA,A,3,29,31,25,02,22,26,12,11,18,32,,,0.8,0.4,0.6*3B
$GNGSA,A,3,71,78,79,80,81,88,,,,,,,0.8,0.4,0.6*20
$GAGSA,A,3,103,105,110,124,131,,,,,,,,0.8,0.4,0.6*1B
$BDGSA,A,3,211,225,,,,,,,,,,,0.8,0.4,0.6*2E
$GPRMC,170054.000,A,4633.8161,N,00023.0967,E,0.0,207.0,060123,,,A*6F
$GPGGA,170055.000,4633.8161,N,00023.0967,E,1,23,0.4,119.0,M,48.4,M,,*5B
$GPVTG,206.9,T,,M,0.0,N,0.0,K,A*00
$GPGSV,3,1,10,02,44,133,39,11,18,042,34,12,22,090,33,18,14,170,40*7F
$GPGSV,3,2,10,22,27,252,36,25,51,086,36,26,23,286,35,29,85,121,37*7B
$GPGSV,3,3,10,31,60,286,38,32,12,221,32,36,28,140,38*48
$GLGSV,2,1,07,71,08,349,33,78,39,110,39,79,73,004,32,80,25,312,39*64
$GLGSV,2,2,07,81,65,153,38,82,20,190,37,88,44,042,39*5C
$GAGSV,2,1,08,101,19,097,31,103,08,329,21,105,23,280,32,110,06,182,33*65
$GAGSV,2,2,08,124,48,294,41,126,26,045,34,131,73,065,37,133,49,104,41*6A
$BDGSV,2,1,05,211,70,131,36,213,21,073,33,223,62,300,36,225,62,134,40*68
$BDGSV,2,2,05,234,61,073,38*60
$GPGSA,A,3,29,31,25,02,22,26,12,11,18,32,,,0.8,0.4,0.6*3B
$GNGSA,A,3,71,78,79,80,81,82,88,,,,,,0.8,0.4,0.6*2A
$GAGSA,A,3,103,105,110,124,131,,,,,,,,0.8,0.4,0.6*1B
$BDGSA,A,3,225,,,,,,,,,,,,0.8,0.4,0.6*1C
$GPRMC,170055.000,A,4633.8161,N,00023.0967,E,0.0,206.9,060123,,,A*66
$GPGGA,170056.000,4633.8161,N,00023.0967,E,1,24,0.4,119.0,M,48.4,M,,*5F
$GPVTG,206.9,T,,M,0.0,N,0.0,K,A*00
$GPGSV,3,1,10,02,44,133,39,11,18,042,34,12,22,090,33,18,14,170,40*7F
$GPGSV,3,2,10,22,27,252,36,25,51,086,36,26,23,286,34,29,85,121,36*7B
$GPGSV,3,3,10,31,60,286,38,32,12,221,32,36,28,140,38*48
$GLGSV,2,1,07,71,08,349,32,78,39,110,39,79,73,004,32,80,25,312,38*64
$GLGSV,2,2,07,81,65,153,38,82,20,190,37,88,44,042,39*5C
$GAGSV,2,1,08,101,19,097,30,103,08,329,21,105,23,280,32,110,06,182,33*64
$GAGSV,2,2,08,124,48,294,41,126,26,045,33,131,73,065,37,133,49,104,41*6D
$BDGSV,2,1,05,211,70,131,36,213,21,073,32,223,62,300,36,225,62,134,40*69
$BDGSV,2,2,05,234,61,073,37*6F
$GPGSA,A,3,29,31,25,02,22,26,12,11,18,32,,,0.8,0.4,0.6*3B
$GNGSA,A,3,71,78,79,80,81,88,,,,,,,0.8,0.4,0.6*20
$GAGSA,A,3,101,103,105,110,124,131,,,,,,,0.8,0.4,0.6*2B
$BDGSA,A,3,211,225,,,,,,,,,,,0.8,0.4,0.6*2E
$GPRMC,170056.000,A,4633.8161,N,00023.0967,E,0.0,206.9,060123,,,A*65
$GPGGA,170057.000,4633.8161,N,00023.0967,E,1,24,0.4,119.0,M,48.4,M,,*5E
$GPVTG,206.9,T,,M,0.0,N,0.0,K,A*00
$GPGSV,3,1,10,02,44,133,39,11,18,042,34,12,22,090,33,18,14,170,39*71
$GPGSV,3,2,10,22,27,252,36,25,51,086,38,26,23,286,34,29,85,121,36*75
$GPGSV,3,3,10,31,60,286,38,32,12,221,32,36,28,140,38*48
$GLGSV,2,1,07,71,08,349,32,78,39,110,44,79,73,004,38,80,25,312,38*64
$GLGSV,2,2,07,81,65,153,39,82,20,190,37,88,44,042,39*5D
$GAGSV,2,1,08,101,19,097,30,103,08,329,21,105,23,280,31,110,06,182,32*66
$GAGSV,2,2,08,124,48,294,41,126,26,045,33,131,73,065,36,133,49,104,41*6C
$BDGSV,2,1,05,211,70,131,36,213,21,073,31,223,62,300,37,225,62,134,40*6B
$BDGSV,2,2,05,234,61,073,37*6F
$GPGSA,A,3,29,31,25,02,22,26,12,11,18,32,,,0.8,0.4,0.6*3B
$GNGSA,A,3,71,78,79,80,81,88,,,,,,,0.8,0.4,0.6*20
$GAGSA,A,3,101,103,105,110,124,131,,,,,,,0.8,0.4,0.6*2B
$BDGSA,A,3,211,225,,,,,,,,,,,0.8,0.4,0.6*2E
$GPRMC,170057.000,A,4633.8161,N,00023.0967,E,0.0,206.9,060123,,,A*64
$GPGGA,170058.000,4633.8161,N,00023.0967,E,1,24,0.4,119.0,M,48.4,M,,*51
$GPVTG,206.9,T,,M,0.0,N,0.0,K,A*00
$GPGSV,3,1,10,02,44,133,38,11,18,042,34,12,22,090,33,18,14,170,39*70
$GPGSV,3,2,10,22,27,252,36,25,51,086,43,26,23,286,34,29,85,121,35*7A
$GPGSV,3,3,10,31,60,286,37,32,12,221,32,36,28,140,38*47
$GLGSV,2,1,07,71,08,349,32,78,39,110,44,79,73,004,40,80,25,312,38*6B
$GLGSV,2,2,07,81,65,153,40,82,20,190,37,88,44,042,39*53
$GAGSV,2,1,08,101,19,097,30,103,08,329,21,105,23,280,31,110,06,182,32*66
$GAGSV,2,2,08,124,48,294,40,126,26,045,33,131,73,065,36,133,49,104,41*6D
$BDGSV,2,1,05,211,70,131,35,213,21,073,31,223,62,300,37,225,62,134,39*66
$BDGSV,2,2,05,234,61,073,36*6E
$GPGSA,A,3,29,31,25,02,22,26,12,11,18,32,,,0.8,0.4,0.6*3B
$GNGSA,A,3,71,78,79,80,81,88,,,,,,,0.8,0.4,0.6*20
$GAGSA,A,3,101,103,105,110,124,131,,,,,,,0.8,0.4,0.6*2B
$BDGSA,A,3,211,225,,,,,,,,,,,0.8,0.4,0.6*2E
$GPRMC,170058.000,A,4633.8161,N,00023.0967,E,0.0,206.9,060123,,,A*6B
$GPGGA,170059.000,4633.8159,N,00023.0965,E,1,24,0.4,118.6,M,48.4,M,,*5E
$GPVTG,219.0,T,,M,1.3,N,2.4,K,A*03
$GPGSV,3,1,10,02,44,133,38,11,18,042,34,12,22,090,33,18,14,170,38*71
$GPGSV,3,2,10,22,27,252,36,25,51,086,43,26,23,286,34,29,85,121,35*7A
$GPGSV,3,3,10,31,60,286,37,32,12,221,32,36,28,140,37*48
$GLGSV,2,1,07,71,08,349,32,78,39,110,45,79,73,004,40,80,25,312,37*65
$GLGSV,2,2,07,81,65,153,41,82,20,190,37,88,44,042,39*52
$GAGSV,2,1,08,101,19,097,29,103,08,329,21,105,23,279,31,110,06,182,31*6B
$GAGSV,2,2,08,124,48,294,40,126,26,045,33,131,73,065,36,133,49,104,41*6D
$BDGSV,2,1,06,211,71,130,35,213,21,073,30,223,62,300,37,224,06,126,19*66
$BDGSV,2,2,06,225,62,134,39,234,61,073,36*60
$GPGSA,A,3,29,31,25,02,22,26,12,11,18,32,,,0.8,0.4,0.6*3B
$GNGSA,A,3,71,78,79,80,81,88,,,,,,,0.8,0.4,0.6*20
$GAGSA,A,3,101,103,105,110,124,131,,,,,,,0.8,0.4,0.6*2B
$BDGSA,A,3,211,225,,,,,,,,,,,0.8,0.4,0.6*2E
$GPRMC,170059.000,A,4633.8159,N,00023.0965,E,1.3,219.0,060123,,,A*66
$GPGGA,170100.000,4633.8156,N,00023.0961,E,1,24,0.4,118.3,M,48.4,M,,*5D
$GPVTG,222.3,T,,M,1.4,N,2.6,K,A*0D
$GPGSV,3,1,10,02,44,133,39,11,18,042,34,12,22,090,38,18,14,170,38*7B
$GPGSV,3,2,10,22,27,252,36,25,51,086,43,26,23,286,34,29,85,121,34*7B
$GPGSV,3,3,10,31,60,286,37,32,12,221,32,36,28,140,37*48
$GLGSV,2,1,07,71,08,349,32,78,39,110,45,79,73,004,40,80,25,312,37*65
$GLGSV,2,2,07,81,65,153,45,82,20,190,37,88,44,042,39*56
$GAGSV,2,1,08,101,19,097,29,103,08,329,21,105,23,279,31,110,06,182,31*6B
$GAGSV,2,2,08,124,48,294,39,126,26,045,33,131,73,065,35,133,49,104,41*60
$BDGSV,2,1,06,211,71,130,35,213,21,073,30,223,62,300,37,224,06,126,19*66
$BDGSV,2,2,06,225,62,134,39,234,61,073,36*60
$GPGSA,A,3,29,31,25,02,22,26,12,11,18,32,,,0.8,0.4,0.6*3B
$GNGSA,A,3,71,78,79,80,81,88,,,,,,,0.8,0.4,0.6*20
$GAGSA,A,3,101,103,105,110,124,131,,,,,,,0.8,0.4,0.6*2B
$BDGSA,A,3,211,225,,,,,,,,,,,0.8,0.4,0.6*2E
$GPRMC,170100.000,A,4633.8156,N,00023.0961,E,1.4,222.3,060123,,,A*6C
$GPGGA,170101.000,4633.8156,N,00023.0957,E,1,24,0.4,118.8,M,48.4,M,,*52
$GPVTG,223.5,T,,M,0.4,N,0.8,K,A*07
$GPGSV,3,1,10,02,44,133,39,11,18,042,34,12,22,090,38,18,14,170,37*74
$GPGSV,3,2,10,22,27,252,36,25,51,086,43,26,23,286,34,29,85,121,34*7B
$GPGSV,3,3,10,31,60,286,37,32,12,221,32,36,28,140,37*48
$GLGSV,2,1,07,71,08,349,32,78,39,110,43,79,73,004,40,80,25,312,37*63
$GLGSV,2,2,07,81,65,153,45,82,20,190,36,88,44,042,41*58
$GAGSV,2,1,08,101,19,097,36,103,08,329,21,105,23,279,32,110,06,182,30*67
$GAGSV,2,2,08,124,48,294,39,126,26,045,33,131,73,065,35,133,49,104,41*60
$BDGSV,2,1,06,211,71,130,35,213,21,073,29,223,62,300,37,224,06,126,19*6E
$BDGSV,2,2,06,225,62,134,38,234,61,073,35*62
$GPGSA,A,3,29,31,25,02,22,26,12,11,18,32,,,0.8,0.4,0.6*3B
$GNGSA,A,3,71,78,79,80,81,88,,,,,,,0.8,0.4,0.6*20
$GAGSA,A,3,101,103,105,110,124,131,,,,,,,0.8,0.4,0.6*2B
$BDGSA,A,3,211,225,,,,,,,,,,,0.8,0.4,0.6*2E
$GPRMC,170101.000,A,4633.8156,N,00023.0957,E,0.4,223.5,060123,,,A*6E
$GPGGA,170102.000,4633.8154,N,00023.0953,E,1,23,0.4,119.2,M,48.4,M,,*5B
$GPVTG,223.6,T,,M,0.5,N,0.9,K,A*04
$GPGSV,3,1,10,02,44,133,43,11,18,042,34,12,22,090,38,18,14,170,37*79
$GPGSV,3,2,10,22,27,252,36,25,51,086,42,26,23,286,33,29,85,121,34*7D
$GPGSV,3,3,10,31,60,286,36,32,12,221,32,36,28,140,37*49
$GLGSV,2,1,07,71,08,349,32,78,39,110,43,79,73,004,40,80,25,312,37*63
$GLGSV,2,2,07,81,65,153,44,82,20,190,36,88,44,042,45*5D
$GAGSV,2,1,08,101,19,097,38,103,08,329,21,105,23,279,32,110,06,182,30*69
$GAGSV,2,2,08,124,48,294,39,126,26,045,35,131,73,065,34,133,49,104,41*67
$BDGSV,2,1,06,211,71,130,35,213,21,073,29,223,62,300,37,224,06,126,19*6E
$BDGSV,2,2,06,225,62,134,38,234,61,073,34*63
$GPGSA,A,3,29,31,25,02,22,26,12,11,18,,,,0.8,0.4,0.6*3A
$GNGSA,A,3,71,78,79,80,81,88,,,,,,,0.8,0.4,0.6*20
$GAGSA,A,3,101,103,105,110,124,131,,,,,,,0.8,0.4,0.6*2B
$BDGSA,A,3,211,225,,,,,,,,,,,0.8,0.4,0.6*2E
$GPRMC,170102.000,A,4633.8154,N,00023.0953,E,0.5,223.6,060123,,,A*69
$GPGGA,170103.000,4633.8154,N,00023.0953,E,1,24,0.4,119.2,M,48.4,M,,*5D
$GPVTG,223.7,T,,M,0.0,N,0.0,K,A*09
$GPGSV,3,1,10,02,44,133,43,11,18,042,34,12,22,090,38,18,14,170,37*79
$GPGSV,3,2,10,22,27,252,36,25,51,086,42,26,23,286,33,29,85,121,33*7A
$GPGSV,3,3,10,31,60,286,36,32,12,221,31,36,28,140,37*4A
$GLGSV,2,1,07,71,08,349,32,78,39,110,42,79,73,004,39,80,25,312,37*6C
$GLGSV,2,2,07,81,65,153,43,82,20,190,35,88,44,042,45*59
$GAGSV,2,1,08,101,19,097,38,103,08,329,21,105,23,279,31,110,06,182,30*6A
$GAGSV,2,2,08,124,48,294,38,126,26,045,35,131,73,065,34,133,49,104,41*66
$BDGSV,2,1,06,211,71,130,35,213,21,073,29,223,62,300,37,224,06,126,19*6E
$BDGSV,2,2,06,225,62,134,38,234,61,073,34*63
$GPGSA,A,3,29,31,25,02,22,26,12,11,18,32,,,0.8,0.4,0.6*3B
$GNGSA,A,3,71,78,79,80,81,88,,,,,,,0.8,0.4,0.6*20
$GAGSA,A,3,101,103,110,124,131,,,,,,,,0.8,0.4,0.6*1F
$BDGSA,A,3,211,224,225,,,,,,,,,,0.8,0.4,0.6*1A
$GPRMC,170103.000,A,4633.8154,N,00023.0953,E,0.0,223.7,060123,,,A*6C
$GPGGA,170104.000,4633.8154,N,00023.0953,E,1,24,0.4,119.2,M,48.4,M,,*5A
$GPVTG,223.3,T,,M,0.0,N,0.0,K,A*0D
$GPGSV,3,1,10,02,44,133,43,11,18,042,33,12,22,090,38,18,14,170,37*7E
$GPGSV,3,2,10,22,27,252,36,25,51,086,42,26,23,286,33,29,85,121,33*7A
$GPGSV,3,3,10,31,60,286,36,32,12,221,31,36,28,140,37*4A
$GLGSV,2,1,07,71,08,349,31,78,39,110,42,79,73,004,39,80,25,312,37*6F
$GLGSV,2,2,07,81,65,153,43,82,20,190,35,88,44,042,44*58
$GAGSV,2,1,08,101,19,097,38,103,08,329,21,105,23,279,30,110,06,182,30*6B
$GAGSV,2,2,08,124,48,294,38,126,26,045,35,131,73,065,34,133,49,104,41*66
$BDGSV,2,1,06,211,71,130,35,213,21,073,28,223,62,300,37,224,06,126,19*6F
$BDGSV,2,2,06,225,62,134,38,234,61,073,33*64
$GPGSA,A,3,29,31,25,02,22,26,12,11,18,32,,,0.8,0.4,0.6*3B
$GNGSA,A,3,71,78,79,80,81,88,,,,,,,0.8,0.4,0.6*20
$GAGSA,A,3,101,103,110,124,131,,,,,,,,0.8,0.4,0.6*1F
$BDGSA,A,3,211,224,225,,,,,,,,,,0.8,0.4,0.6*1A
$GPRMC,170104.000,A,4633.8154,N,00023.0953,E,0.0,223.3,060123,,,A*6F
$GPGGA,170105.000,4633.8154,N,00023.0953,E,1,24,0.4,119.2,M,48.4,M,,*5B
$GPVTG,223.2,T,,M,0.0,N,0.0,K,A*0C
$GPGSV,3,1,10,02,44,133,43,11,18,042,33,12,22,090,39,18,14,170,36*7E
$GPGSV,3,2,10,22,27,252,36,25,51,086,42,26,23,286,33,29,85,121,33*7A
$GPGSV,3,3,10,31,60,286,36,32,12,221,32,36,28,140,37*49
$GLGSV,2,1,07,71,08,349,31,78,39,110,41,79,73,004,39,80,25,312,37*6C
$GLGSV,2,2,07,81,65,153,42,82,20,190,35,88,44,042,44*59
$GAGSV,2,1,08,101,19,097,38,103,08,329,21,105,23,279,30,110,06,182,30*6B
$GAGSV,2,2,08,124,48,294,37,126,26,045,34,131,73,065,34,133,49,104,41*68
$BDGSV,2,1,06,211,71,130,35,213,21,073,28,223,62,300,37,224,06,126,20*65
$BDGSV,2,2,06,225,62,134,38,234,61,073,33*64
$GPGSA,A,3,29,31,25,02,22,26,12,11,18,32,,,0.8,0.4,0.6*3B
$GNGSA,A,3,71,78,79,80,81,88,,,,,,,0.8,0.4,0.6*20
$GAGSA,A,3,101,103,110,124,131,,,,,,,,0.8,0.4,0.6*1F
$BDGSA,A,3,211,224,225,,,,,,,,,,0.8,0.4,0.6*1A
$GPRMC,170105.000,A,4633.8154,N,00023.0953,E,0.0,223.2,060123,,,A*6F
$GPGGA,170106.000,4633.8154,N,00023.0952,E,1,24,0.4,119.3,M,48.4,M,,*58
$GPVTG,162.5,T,,M,1.2,N,2.2,K,A*0E
$GPGSV,3,1,10,02,44,133,43,11,18,042,33,12,22,090,39,18,14,170,36*7E
$GPGSV,3,2,10,22,27,252,35,25,51,086,42,26,23,286,33,29,85,121,33*79
$GPGSV,3,3,10,31,60,286,35,32,12,221,32,36,28,140,37*4A
$GLGSV,2,1,07,71,08,349,31,78,39,110,41,79,73,004,39,80,25,312,37*6C
$GLGSV,2,2,07,81,65,153,42,82,20,190,35,88,44,042,44*59
$GAGSV,2,1,08,101,19,097,38,103,08,329,21,105,23,279,30,110,06,182,29*63
$GAGSV,2,2,08,124,48,294,37,126,26,045,34,131,73,066,34,133,49,104,41*6B
$BDGSV,2,1,06,211,71,130,35,213,21,073,27,223,62,300,36,224,06,126,20*6B
$BDGSV,2,2,06,225,62,134,38,234,61,073,32*65
$GPGSA,A,3,29,31,25,02,22,26,12,11,18,32,,,0.8,0.4,0.6*3B
$GNGSA,A,3,71,78,79,80,81,88,,,,,,,0.8,0.4,0.6*20
$GAGSA,A,3,101,103,110,124,131,,,,,,,,0.8,0.4,0.6*1F
$BDGSA,A,3,211,224,225,,,,,,,,,,0.8,0.4,0.6*1A
$GPRMC,170106.000,A,4633.8154,N,00023.0952,E,1.2,162.5,060123,,,A*6F
$GPGGA,170107.000,4633.8150,N,00023.0957,E,1,24,0.4,119.3,M,48.4,M,,*58
$GPVTG,135.8,T,,M,3.1,N,5.8,K,A*0D
$GPGSV,3,1,10,02,44,133,43,11,18,042,34,12,22,090,39,18,14,170,36*79
$GPGSV,3,2,10,22,27,252,35,25,51,086,42,26,23,286,33,29,85,121,36*7C
$GPGSV,3,3,10,31,60,286,35,32,12,221,32,36,28,140,37*4A
$GLGSV,2,1,07,71,08,349,31,78,39,110,41,79,73,004,39,80,25,312,37*6C
$GLGSV,2,2,07,81,65,153,42,82,20,190,35,88,44,042,44*59
$GAGSV,2,1,08,101,19,097,37,103,08,329,21,105,23,279,30,110,06,182,29*6C
$GAGSV,2,2,08,124,48,294,36,126,26,045,34,131,73,066,34,133,49,104,41*6A
$BDGSV,2,1,06,211,71,130,36,213,21,073,27,223,62,300,36,224,06,126,20*68
$BDGSV,2,2,06,225,62,134,39,234,61,073,35*63
$GPGSA,A,3,29,31,25,02,22,26,12,11,18,32,,,0.8,0.4,0.6*3B
$GNGSA,A,3,71,78,79,80,81,88,,,,,,,0.8,0.4,0.6*20
$GAGSA,A,3,101,103,110,124,131,,,,,,,,0.8,0.4,0.6*1F
$BDGSA,A,3,211,224,225,,,,,,,,,,0.8,0.4,0.6*1A
$GPRMC,170107.000,A,4633.8150,N,00023.0957,E,3.1,135.8,060123,,,A*61
$GPGGA,170108.000,4633.8143,N,00023.0969,E,1,24,0.4,119.5,M,48.4,M,,*5E
$GPVTG,136.6,T,,M,3.9,N,7.2,K,A*00
$GPGSV,3,1,10,02,44,133,42,11,18,042,34,12,22,090,39,18,14,170,35*7B
$GPGSV,3,2,10,22,27,252,35,25,51,086,42,26,23,286,33,29,85,121,39*73
$GPGSV,3,3,10,31,60,286,35,32,12,221,32,36,28,140,37*4A
$GLGSV,2,1,07,71,08,349,31,78,39,110,41,79,73,004,39,80,25,312,37*6C
$GLGSV,2,2,07,81,65,153,41,82,20,190,35,88,44,042,43*5D
$GAGSV,2,1,08,101,19,097,37,103,08,329,21,105,23,279,30,110,06,182,29*6C
$GAGSV,2,2,08,124,48,294,36,126,26,045,34,131,73,066,33,133,49,104,41*6D
$BDGSV,2,1,06,211,71,130,36,213,21,073,27,223,62,300,36,224,06,126,20*68
$BDGSV,2,2,06,225,62,134,39,234,61,073,39*6F
$GPGSA,A,3,29,31,25,02,22,26,12,11,18,32,,,0.8,0.4,0.6*3B
$GNGSA,A,3,71,78,79,80,81,88,,,,,,,0.8,0.4,0.6*20
$GAGSA,A,3,101,103,110,124,131,,,,,,,,0.8,0.4,0.6*1F
$BDGSA,A,3,211,224,225,,,,,,,,,,0.8,0.4,0.6*1A
$GPRMC,170108.000,A,4633.8143,N,00023.0969,E,3.9,136.6,060123,,,A*64
$GPGGA,170109.000,4633.8133,N,00023.0983,E,1,24,0.4,119.0,M,48.4,M,,*59
$GPVTG,141.0,T,,M,4.2,N,7.7,K,A*0F
$GPGSV,3,1,10,02,44,133,42,11,18,042,34,12,22,090,39,18,14,170,35*7B
$GPGSV,3,2,10,22,27,252,35,25,51,086,41,26,24,286,33,29,85,121,39*77
$GPGSV,3,3,10,31,60,286,35,32,12,221,32,36,28,140,37*4A
$GLGSV,2,1,07,71,08,349,31,78,39,110,41,79,73,004,38,80,25,312,37*6D
$GLGSV,2,2,07,81,65,153,41,82,20,190,35,88,44,042,43*5D
$GAGSV,2,1,08,101,19,097,36,103,08,329,21,105,23,279,30,110,06,182,29*6D
$GAGSV,2,2,08,124,48,294,36,126,26,045,34,131,73,066,33,133,49,104,41*6D
$BDGSV,2,1,06,211,71,130,36,213,21,073,26,223,62,300,36,224,06,126,21*68
$BDGSV,2,2,06,225,62,134,39,234,61,073,39*6F
$GPGSA,A,3,29,31,25,02,22,26,12,11,18,32,,,0.8,0.4,0.6*3B
$GNGSA,A,3,71,79,80,81,88,,,,,,,,0.8,0.4,0.6*2F
$GAGSA,A,3,101,103,110,124,131,133,,,,,,,0.8,0.4,0.6*2E
$BDGSA,A,3,211,224,225,,,,,,,,,,0.8,0.4,0.6*1A
$GPRMC,170109.000,A,4633.8133,N,00023.0983,E,4.2,141.0,060123,,,A*6C
$GPGGA,170110.000,4633.8125,N,00023.0996,E,1,24,0.4,118.7,M,48.4,M,,*54
$GPVTG,139.7,T,,M,3.9,N,7.2,K,A*0E
$GPGSV,3,1,10,02,44,133,42,11,18,042,34,12,22,090,40,18,14,170,35*75
$GPGSV,3,2,10,22,27,252,36,25,51,086,40,26,24,286,33,29,85,117,39*70
$GPGSV,3,3,10,31,60,286,35,32,12,221,32,36,28,140,36*4B
$GLGSV,2,1,07,71,08,349,34,78,39,110,41,79,73,004,38,80,25,312,37*68
$GLGSV,2,2,07,81,65,153,41,82,20,190,35,88,44,042,43*5D
$GAGSV,2,1,08,101,19,097,36,103,08,329,21,105,23,279,31,110,06,182,29*6C
$GAGSV,2,2,08,124,48,294,35,126,26,045,34,131,73,066,33,133,49,104,40*6F
$BDGSV,2,1,06,211,71,130,37,213,21,073,26,223,62,300,36,224,06,126,21*69
$BDGSV,2,2,06,225,62,134,39,234,61,073,39*6F
$GPGSA,A,3,29,31,25,02,22,26,12,11,18,32,,,0.8,0.4,0.6*3B
$GNGSA,A,3,71,79,80,81,88,,,,,,,,0.8,0.4,0.6*2F
$GAGSA,A,3,101,103,110,124,131,133,,,,,,,0.8,0.4,0.6*2E
$BDGSA,A,3,211,224,225,,,,,,,,,,0.8,0.4,0.6*1A
$GPRMC,170110.000,A,4633.8125,N,00023.0996,E,3.9,139.7,060123,,,A*63
$GPGGA,170111.000,4633.8116,N,00023.1005,E,1,23,0.4,118.2,M,48.4,M,,*55
$GPVTG,137.8,T,,M,3.9,N,7.2,K,A*0F
$GPGSV,3,1,10,02,44,133,42,11,18,042,34,12,22,090,41,18,14,170,35*74
$GPGSV,3,2,10,22,27,252,37,25,51,086,40,26,24,286,33,29,85,117,39*71
$GPGSV,3,3,10,31,61,286,35,32,12,221,32,36,28,140,36*4A
$GLGSV,2,1,07,71,08,349,37,78,39,110,41,79,73,004,38,80,25,312,37*6B
$GLGSV,2,2,07,81,65,153,41,82,20,190,35,88,44,042,42*5C
$GAGSV,2,1,08,101,19,097,36,103,08,329,21,105,23,279,31,110,06,182,29*6C
$GAGSV,2,2,08,124,48,294,35,126,26,045,34,131,73,066,33,133,49,104,39*61
$BDGSV,2,1,06,211,71,130,37,213,21,073,26,223,62,300,36,224,06,126,21*69
$BDGSV,2,2,06,225,62,134,39,234,61,073,38*6E
$GPGSA,A,3,29,31,25,02,22,26,12,11,18,32,,,0.8,0.4,0.6*3B
$GNGSA,A,3,71,79,80,81,88,,,,,,,,0.8,0.4,0.6*2F
$GAGSA,A,3,101,103,110,131,133,,,,,,,,0.8,0.4,0.6*19
$BDGSA,A,3,211,224,225,,,,,,,,,,0.8,0.4,0.6*1A
$GPRMC,170111.000,A,4633.8116,N,00023.1005,E,3.9,137.8,060123,,,A*61
$GPGGA,170112.000,4633.8108,N,00023.1016,E,1,24,0.4,118.2,M,48.4,M,,*5C
$GPVTG,135.7,T,,M,3.5,N,6.5,K,A*08
$GPGSV,3,1,10,02,44,133,42,11,18,042,34,12,22,090,41,18,14,170,34*75
$GPGSV,3,2,10,22,27,252,37,25,51,086,39,26,24,286,33,29,85,117,39*7F
$GPGSV,3,3,10,31,61,286,35,32,12,220,38,36,28,140,36*41
$GLGSV,2,1,07,71,08,349,37,78,39,110,40,79,73,004,38,80,25,312,36*6B
$GLGSV,2,2,07,81,65,153,40,82,20,190,35,88,44,042,42*5D
$GAGSV,2,1,08,101,19,097,35,103,08,329,21,105,23,279,31,110,06,182,29*6F
$GAGSV,2,2,08,124,48,294,34,126,26,045,34,131,73,066,33,133,49,104,39*60
$BDGSV,2,1,06,211,71,130,37,213,21,073,26,223,62,300,36,224,06,126,21*69
$BDGSV,2,2,06,225,62,134,39,234,61,073,37*61
$GPGSA,A,3,29,31,25,02,22,26,12,11,18,32,,,0.8,0.4,0.6*3B
$GNGSA,A,3,71,79,80,81,88,,,,,,,,0.8,0.4,0.6*2F
$GAGSA,A,3,101,103,110,124,131,133,,,,,,,0.8,0.4,0.6*2E
$BDGSA,A,3,211,224,225,,,,,,,,,,0.8,0.4,0.6*1A
$GPRMC,170112.000,A,4633.8108,N,00023.1016,E,3.5,135.7,060123,,,A*6E
$GPGGA,170113.000,4633.8103,N,00023.1027,E,1,24,0.4,117.8,M,48.4,M,,*51
$GPVTG,129.1,T,,M,3.3,N,6.1,K,A*01
$GPGSV,3,1,10,02,44,133,42,11,18,042,34,12,22,090,40,18,14,170,34*74
$GPGSV,3,2,10,22,27,252,37,25,51,086,39,26,24,286,33,29,85,117,39*7F
$GPGSV,3,3,10,31,61,286,35,32,12,220,39,36,28,140,36*40
$GLGSV,2,1,07,71,08,349,37,78,39,110,40,79,73,004,38,80,25,312,36*6B
$GLGSV,2,2,07,81,65,153,40,82,20,190,34,88,44,042,42*5C
$GAGSV,2,1,08,101,19,097,35,103,08,329,21,105,23,279,31,110,06,182,29*6F
$GAGSV,2,2,08,124,48,294,33,126,26,045,34,131,73,066,33,133,49,104,38*66
$BDGSV,2,1,06,211,71,130,36,213,21,073,25,223,62,300,36,224,06,126,20*6A
$BDGSV,2,2,06,225,62,134,38,234,61,073,36*61
$GPGSA,A,3,29,31,25,02,22,26,12,11,18,32,,,0.8,0.4,0.6*3B
$GNGSA,A,3,71,79,80,81,88,,,,,,,,0.8,0.4,0.6*2F
$GAGSA,A,3,101,103,110,124,131,133,,,,,,,0.8,0.4,0.6*2E
$BDGSA,A,3,211,224,225,,,,,,,,,,0.8,0.4,0.6*1A
$GPRMC,170113.000,A,4633.8103,N,00023.1027,E,3.3,129.1,060123,,,A*6B
$GPGGA,170114.000,4633.8096,N,00023.1035,E,1,24,0.4,117.3,M,48.4,M,,*53
$GPVTG,127.0,T,,M,3.3,N,6.2,K,A*0D
$GPGSV,3,1,10,02,44,133,42,11,18,042,34,12,22,090,39,18,14,170,33*7D
$GPGSV,3,2,10,22,27,252,37,25,51,086,38,26,24,286,33,29,85,117,39*7E
$GPGSV,3,3,10,31,61,286,35,32,12,220,39,36,28,140,36*40
$GLGSV,2,1,07,71,08,349,36,78,39,110,39,79,73,004,37,80,25,312,36*6B
$GLGSV,2,2,07,81,65,153,39,82,20,190,34,88,44,042,41*51
$GAGSV,2,1,08,101,19,097,35,103,08,329,21,105,23,279,31,110,06,182,28*6E
$GAGSV,2,2,08,124,48,294,33,126,26,045,34,131,73,066,33,133,49,104,38*66
$BDGSV,2,1,06,211,71,130,36,213,21,073,25,223,62,300,36,224,06,126,20*6A
$BDGSV,2,2,06,225,62,134,38,234,61,073,36*61
$GPGSA,A,3,29,31,25,02,22,26,12,11,18,32,,,0.8,0.4,0.6*3B
$GNGSA,A,3,71,79,80,81,88,,,,,,,,0.8,0.4,0.6*2F
$GAGSA,A,3,101,103,110,124,131,133,,,,,,,0.8,0.4,0.6*2E
$BDGSA,A,3,211,224,225,,,,,,,,,,0.8,0.4,0.6*1A
$GPRMC,170114.000,A,4633.8096,N,00023.1035,E,3.3,127.0,060123,,,A*6D
$GPGGA,170115.000,4633.8089,N,00023.1046,E,1,24,0.4,117.0,M,48.4,M,,*5B
$GPVTG,128.2,T,,M,3.9,N,7.3,K,A*0A
$GPGSV,3,1,10,02,44,133,42,11,18,042,34,12,22,090,38,18,14,170,33*7C
$GPGSV,3,2,10,22,27,252,37,25,51,086,38,26,24,286,34,29,85,117,39*79
$GPGSV,3,3,10,31,61,286,35,32,12,220,39,36,28,140,36*40
$GLGSV,2,1,07,71,08,349,36,78,39,110,38,79,73,004,36,80,25,312,36*6B
$GLGSV,2,2,07,81,65,153,38,82,20,190,34,88,44,042,41*50
$GAGSV,2,1,08,101,19,097,34,103,08,329,21,105,23,279,31,110,06,182,28*6F
$GAGSV,2,2,08,124,48,294,32,126,26,045,34,131,73,066,33,133,49,104,38*67
$BDGSV,2,1,06,211,71,130,35,213,21,073,25,223,62,300,36,224,06,126,20*69
$BDGSV,2,2,06,225,62,134,37,234,61,073,35*6D
$GPGSA,A,3,29,31,25,02,22,26,12,11,18,32,,,0.8,0.4,0.6*3B
$GNGSA,A,3,71,79,80,81,88,,,,,,,,0.8,0.4,0.6*2F
$GAGSA,A,3,101,103,110,124,131,133,,,,,,,0.8,0.4,0.6*2E
$BDGSA,A,3,211,224,225,,,,,,,,,,0.8,0.4,0.6*1A
$GPRMC,170115.000,A,4633.8089,N,00023.1046,E,3.9,128.2,060123,,,A*61
$GPGGA,170116.000,4633.8082,N,00023.1059,E,1,24,0.4,116.7,M,48.4,M,,*5B
$GPVTG,127.4,T,,M,4.3,N,8.0,K,A*02
$GPGSV,3,1,10,02,44,133,42,11,18,042,34,12,22,090,38,18,14,170,32*7D
$GPGSV,3,2,10,22,27,252,37,25,51,086,38,26,24,286,34,29,85,117,39*79
$GPGSV,3,3,10,31,61,286,35,32,12,220,38,36,28,140,36*41
$GLGSV,2,1,07,71,08,349,35,78,39,110,38,79,73,004,36,80,25,312,36*68
$GLGSV,2,2,07,81,65,153,38,82,20,190,34,88,44,042,40*51
$GAGSV,2,1,08,101,19,097,34,103,08,329,21,105,23,279,31,110,06,182,28*6F
$GAGSV,2,2,08,124,48,294,32,126,26,045,34,131,73,066,33,133,49,104,37*68
$BDGSV,2,1,06,211,71,130,34,213,21,073,25,223,62,300,36,224,06,126,20*68
$BDGSV,2,2,06,225,62,134,37,234,61,073,35*6D
$GPGSA,A,3,29,31,25,02,22,26,12,11,18,32,,,0.8,0.4,0.6*3B
$GNGSA,A,3,71,79,80,81,88,,,,,,,,0.8,0.4,0.6*2F
$GAGSA,A,3,101,103,110,124,131,133,,,,,,,0.8,0.4,0.6*2E
$BDGSA,A,3,211,224,225,,,,,,,,,,0.8,0.4,0.6*1A
$GPRMC,170116.000,A,4633.8082,N,00023.1059,E,4.3,127.4,060123,,,A*63
$GPGGA,170117.000,4633.8075,N,00023.1075,E,1,24,0.4,116.4,M,48.4,M,,*5F
$GPVTG,128.3,T,,M,4.5,N,8.3,K,A*0F
$GPGSV,3,1,10,02,44,133,42,11,18,042,34,12,22,090,37,18,14,170,32*72
$GPGSV,3,2,10,22,27,252,38,25,51,086,38,26,24,286,35,29,85,117,39*77
$GPGSV,3,3,10,31,61,286,35,32,12,220,37,36,28,140,36*4E
$GLGSV,2,1,07,71,08,349,35,78,39,110,37,79,73,004,35,80,25,312,36*64
$GLGSV,2,2,07,81,65,153,37,82,20,190,34,88,44,042,39*50
$GAGSV,2,1,08,101,19,097,34,103,08,329,21,105,23,279,30,110,06,182,28*6E
$GAGSV,2,2,08,124,48,294,32,126,26,045,34,131,73,066,33,133,49,104,37*68
$BDGSV,2,1,06,211,71,130,34,213,21,073,25,223,62,300,36,224,06,126,20*68
$BDGSV,2,2,06,225,62,134,37,234,61,073,35*6D
$GPGSA,A,3,29,31,25,02,22,26,12,11,18,32,,,0.8,0.4,0.6*3B
$GNGSA,A,3,71,79,80,81,88,,,,,,,,0.8,0.4,0.6*2F
$GAGSA,A,3,101,103,110,124,131,133,,,,,,,0.8,0.4,0.6*2E
$BDGSA,A,3,211,224,225,,,,,,,,,,0.8,0.4,0.6*1A
$GPRMC,170117.000,A,4633.8075,N,00023.1075,E,4.5,128.3,060123,,,A*6A
$GPGGA,170118.000,4633.8068,N,00023.1090,E,1,24,0.4,116.1,M,48.4,M,,*52
$GPVTG,129.2,T,,M,4.7,N,8.6,K,A*08
$GPGSV,3,1,10,02,44,133,41,11,18,042,34,12,22,090,37,18,14,170,32*71
$GPGSV,3,2,10,22,27,252,38,25,51,086,38,26,24,286,35,29,85,117,38*76
$GPGSV,3,3,10,31,61,286,36,32,12,220,36,36,28,140,36*4C
$GLGSV,2,1,07,71,08,349,35,78,39,110,37,79,73,004,34,80,25,312,36*65
$GLGSV,2,2,07,81,65,153,37,82,20,190,34,88,44,042,38*51
$GAGSV,2,1,08,101,19,097,33,103,08,329,21,105,23,279,30,110,06,182,28*69
$GAGSV,2,2,08,124,48,294,32,126,26,045,33,131,73,066,32,133,49,104,37*6E
$BDGSV,2,1,06,211,71,130,33,213,21,073,24,223,62,300,37,224,06,126,20*6F
$BDGSV,2,2,06,225,62,134,36,234,61,073,34*6D
$GPGSA,A,3,29,31,25,02,22,26,12,11,18,32,,,0.8,0.4,0.6*3B
$GNGSA,A,3,71,79,80,81,88,,,,,,,,0.8,0.4,0.6*2F
$GAGSA,A,3,101,103,110,124,131,133,,,,,,,0.8,0.4,0.6*2E
$BDGSA,A,3,211,224,225,,,,,,,,,,0.8,0.4,0.6*1A
$GPRMC,170118.000,A,4633.8068,N,00023.1090,E,4.7,129.2,060123,,,A*60
$GPGGA,170119.000,4633.8060,N,00023.1104,E,1,24,0.4,115.3,M,48.4,M,,*56
$GPVTG,128.2,T,,M,4.6,N,8.6,K,A*08
$GPGSV,3,1,10,02,44,133,41,11,18,042,34,12,22,090,36,18,14,170,31*73
$GPGSV,3,2,10,22,27,252,38,25,51,086,38,26,24,286,35,29,85,117,38*76
$GPGSV,3,3,10,31,61,286,36,32,12,220,36,36,28,140,36*4C
$GLGSV,2,1,08,70,12,301,19,71,08,349,35,78,38,110,36,79,74,005,34*68
$GLGSV,2,2,08,80,25,312,36,81,66,153,37,82,21,191,34,88,43,042,37*6F
$GAGSV,2,1,08,101,19,097,33,103,08,329,21,105,23,279,30,110,06,182,28*69
$GAGSV,2,2,08,124,48,294,32,126,26,045,33,131,73,066,32,133,49,104,37*6E
$BDGSV,2,1,06,211,71,130,32,213,21,073,24,223,62,300,37,224,06,126,20*6E
$BDGSV,2,2,06,225,62,134,36,234,61,073,34*6D
$GPGSA,A,3,29,31,25,02,22,26,12,11,18,32,,,0.8,0.4,0.6*3B
$GNGSA,A,3,71,79,80,81,88,,,,,,,,0.8,0.4,0.6*2F
$GAGSA,A,3,101,103,110,124,131,133,,,,,,,0.8,0.4,0.6*2E
$BDGSA,A,3,211,224,225,,,,,,,,,,0.8,0.4,0.6*1A
$GPRMC,170119.000,A,4633.8060,N,00023.1104,E,4.6,128.2,060123,,,A*65
$GPGGA,170120.000,4633.8051,N,00023.1117,E,1,24,0.4,114.5,M,48.4,M,,*5B
$GPVTG,130.9,T,,M,4.8,N,8.8,K,A*0A
$GPGSV,3,1,10,02,44,133,41,11,18,042,34,12,22,090,36,18,14,170,31*73
$GPGSV,3,2,10,22,27,252,38,25,51,086,37,26,24,286,35,29,85,117,38*79
$GPGSV,3,3,10,31,61,286,36,32,12,220,35,36,28,140,36*4F
$GLGSV,2,1,08,70,12,301,20,71,08,349,34,78,38,110,36,79,74,005,34*63
$GLGSV,2,2,08,80,25,312,36,81,66,153,36,82,21,191,33,88,43,042,41*68
$GAGSV,2,1,08,101,19,097,33,103,08,329,21,105,23,279,30,110,06,182,27*66
$GAGSV,2,2,08,124,48,294,32,126,26,045,33,131,73,066,32,133,49,104,37*6E
$BDGSV,2,1,06,211,71,130,32,213,21,073,24,223,62,300,37,224,06,126,20*6E
$BDGSV,2,2,06,225,62,134,36,234,61,073,34*6D
$GPGSA,A,3,29,31,25,02,22,26,12,11,18,32,,,0.8,0.4,0.6*3B
$GNGSA,A,3,70,71,79,80,81,88,,,,,,,0.8,0.4,0.6*28
$GAGSA,A,3,101,103,110,124,131,133,,,,,,,0.8,0.4,0.6*2E
$BDGSA,A,3,224,225,,,,,,,,,,,0.8,0.4,0.6*28
$GPRMC,170120.000,A,4633.8051,N,00023.1117,E,4.8,130.9,060123,,,A*63
$GPGGA,170121.000,4633.8043,N,00023.1132,E,1,24,0.4,114.3,M,48.4,M,,*58
$GPVTG,131.6,T,,M,4.7,N,8.8,K,A*0B
$GPGSV,3,1,10,02,44,133,41,11,18,042,34,12,22,090,35,18,14,170,31*70
$GPGSV,3,2,10,22,27,252,38,25,51,086,37,26,24,286,35,29,85,117,38*79
$GPGSV,3,3,10,31,61,286,36,32,12,220,35,36,28,140,36*4F
$GLGSV,2,1,08,70,12,301,21,71,08,349,34,78,38,110,36,79,74,005,33*65
$GLGSV,2,2,08,80,25,312,36,81,66,153,36,82,21,191,33,88,43,042,41*68
$GAGSV,2,1,08,101,19,097,33,103,08,329,22,105,23,279,29,110,06,182,27*6D
$GAGSV,2,2,08,124,48,294,32,126,26,045,33,131,73,066,32,133,49,104,37*6E
$BDGSV,2,1,06,211,71,130,31,213,21,073,24,223,62,300,37,224,06,126,20*6D
$BDGSV,2,2,06,225,62,134,36,234,61,073,34*6D
$GPGSA,A,3,29,31,25,02,22,26,12,11,18,32,,,0.8,0.4,0.6*3B
$GNGSA,A,3,70,71,79,80,81,88,,,,,,,0.8,0.4,0.6*28
$GAGSA,A,3,101,103,110,124,131,133,,,,,,,0.8,0.4,0.6*2E
$BDGSA,A,3,224,225,,,,,,,,,,,0.8,0.4,0.6*28
$GPRMC,170121.000,A,4633.8043,N,00023.1132,E,4.7,131.6,060123,,,A*67
$GPGGA,170122.000,4633.8032,N,00023.1148,E,1,24,0.4,113.6,M,48.4,M,,*52
$GPVTG,132.7,T,,M,4.9,N,9.1,K,A*0F
$GPGSV,3,1,10,02,44,133,41,11,18,042,34,12,22,090,35,18,14,170,31*70
$GPGSV,3,2,10,22,27,252,38,25,51,086,37,26,24,286,35,29,85,117,38*79
$GPGSV,3,3,10,31,61,286,36,32,12,220,34,36,28,140,36*4E
$GLGSV,2,1,08,70,12,301,21,71,08,349,34,78,38,110,36,79,74,005,33*65
$GLGSV,2,2,08,80,25,312,36,81,66,153,35,82,21,191,33,88,43,042,41*6B
$GAGSV,2,1,08,101,19,097,32,103,08,329,30,105,23,279,28,110,06,182,27*6E
$GAGSV,2,2,08,124,48,294,32,126,26,045,33,131,73,066,32,133,49,104,37*6E
$BDGSV,2,1,06,211,71,130,31,213,21,073,24,223,62,300,37,224,06,126,20*6D
$BDGSV,2,2,06,225,62,134,36,234,61,073,34*6D
$GPGSA,A,3,29,31,25,02,22,26,12,11,18,32,,,0.8,0.4,0.6*3B
$GNGSA,A,3,70,71,79,80,81,88,,,,,,,0.8,0.4,0.6*28
$GAGSA,A,3,101,103,110,124,131,133,,,,,,,0.8,0.4,0.6*2E
$BDGSA,A,3,224,225,,,,,,,,,,,0.8,0.4,0.6*28
$GPRMC,170122.000,A,4633.8032,N,00023.1148,E,4.9,132.7,060123,,,A*63
$GPGGA,170123.000,4633.8022,N,00023.1163,E,1,24,0.4,113.0,M,48.4,M,,*5D
$GPVTG,133.6,T,,M,4.9,N,9.0,K,A*0E
$GPGSV,3,1,10,02,44,133,41,11,18,042,34,12,22,090,34,18,14,170,30*70
$GPGSV,3,2,10,22,27,252,38,25,51,086,37,26,24,286,35,29,85,117,38*79
$GPGSV,3,3,10,31,61,286,36,32,12,220,34,36,28,140,36*4E
$GLGSV,2,1,08,70,12,301,22,71,08,349,34,78,38,110,35,79,74,005,33*65
$GLGSV,2,2,08,80,25,312,36,81,66,153,35,82,21,191,33,88,43,042,41*6B
$GAGSV,2,1,08,101,19,097,32,103,08,329,32,105,23,279,28,110,06,182,27*6C
$GAGSV,2,2,08,124,48,294,32,126,26,045,33,131,73,066,32,133,49,104,37*6E
$BDGSV,2,1,06,211,71,130,30,213,21,073,23,223,62,300,37,224,06,126,20*6B
$BDGSV,2,2,06,225,62,134,35,234,61,073,34*6E
$GPGSA,A,3,29,31,25,02,22,26,12,11,18,32,,,0.8,0.4,0.6*3B
$GNGSA,A,3,70,71,79,80,81,88,,,,,,,0.8,0.4,0.6*28
$GAGSA,A,3,101,103,110,124,131,133,,,,,,,0.8,0.4,0.6*2E
$BDGSA,A,3,224,225,,,,,,,,,,,0.8,0.4,0.6*28
$GPRMC,170123.000,A,4633.8022,N,00023.1163,E,4.9,133.6,060123,,,A*6A
$GPGGA,170124.000,4633.8012,N,00023.1177,E,1,23,0.4,111.7,M,48.4,M,,*5E
$GPVTG,133.4,T,,M,4.9,N,9.0,K,A*0C
$GPGSV,3,1,10,02,44,133,41,11,18,042,34,12,22,090,34,18,14,170,30*70
$GPGSV,3,2,10,22,27,252,38,25,51,086,38,26,24,286,35,29,85,117,38*76
$GPGSV,3,3,10,31,61,286,36,32,12,220,34,36,28,140,36*4E
$GLGSV,2,1,08,70,12,301,23,71,08,349,33,78,38,110,35,79,74,005,34*64
$GLGSV,2,2,08,80,25,312,35,81,66,153,35,82,21,191,33,88,43,042,41*68
$GAGSV,2,1,08,101,19,097,32,103,08,329,32,105,23,279,28,110,06,182,27*6C
$GAGSV,2,2,08,124,48,294,32,126,26,045,34,131,73,066,32,133,49,104,37*69
$BDGSV,2,1,06,211,71,130,30,213,21,073,23,223,62,300,37,224,06,126,20*6B
$BDGSV,2,2,06,225,62,134,35,234,61,073,34*6E
$GPGSA,A,3,29,31,25,02,22,26,12,11,18,32,,,0.8,0.4,0.6*3B
$GNGSA,A,3,71,79,80,81,88,,,,,,,,0.8,0.4,0.6*2F
$GAGSA,A,3,101,103,110,124,131,133,,,,,,,0.8,0.4,0.6*2E
$BDGSA,A,3,224,225,,,,,,,,,,,0.8,0.4,0.6*28
$GPRMC,170124.000,A,4633.8012,N,00023.1177,E,4.9,133.4,060123,,,A*69
$GPGGA,170125.000,4633.8004,N,00023.1189,E,1,24,0.4,111.3,M,48.4,M,,*5A
$GPVTG,127.3,T,,M,3.6,N,6.6,K,A*0F
$GPGSV,3,1,10,02,44,133,41,11,18,042,34,12,22,090,34,18,14,170,30*70
$GPGSV,3,2,10,22,27,251,38,25,51,087,38,26,24,286,35,29,85,116,38*75
$GPGSV,3,3,10,31,61,286,36,32,12,220,33,36,28,140,36*49
$GLGSV,2,1,08,70,12,301,23,71,08,349,33,78,38,110,35,79,74,005,35*65
$GLGSV,2,2,08,80,25,312,35,81,66,153,35,82,21,191,33,88,43,042,42*6B
$GAGSV,2,1,08,101,19,097,32,103,08,329,32,105,23,279,28,110,06,182,26*6D
$GAGSV,2,2,08,124,48,294,32,126,26,045,37,131,73,066,32,133,49,104,37*6A
$BDGSV,2,1,07,211,71,130,30,212,44,057,31,213,21,073,23,223,62,300,37*6E
$BDGSV,2,2,07,224,06,126,20,225,62,134,35,234,61,073,34*6A
$GPGSA,A,3,29,31,25,02,22,26,12,11,18,32,,,0.8,0.4,0.6*3B
$GNGSA,A,3,70,71,79,80,81,88,,,,,,,0.8,0.4,0.6*28
$GAGSA,A,3,101,103,110,124,131,133,,,,,,,0.8,0.4,0.6*2E
$BDGSA,A,3,224,225,,,,,,,,,,,0.8,0.4,0.6*28
$GPRMC,170125.000,A,4633.8004,N,00023.1189,E,3.6,127.3,060123,,,A*64
$GPGGA,170126.000,4633.8001,N,00023.1201,E,1,24,0.4,110.7,M,48.4,M,,*5A
$GPVTG,114.9,T,,M,3.4,N,6.3,K,A*02
$GPGSV,3,1,10,02,44,133,41,11,18,042,34,12,22,090,34,18,14,170,30*70
$GPGSV,3,2,10,22,27,251,38,25,51,087,37,26,24,286,35,29,85,116,38*7A
$GPGSV,3,3,10,31,61,286,36,32,12,220,33,36,28,140,36*49
$GLGSV,2,1,08,70,12,301,23,71,08,349,33,78,38,110,35,79,74,005,35*65
$GLGSV,2,2,08,80,25,312,34,81,66,153,36,82,21,191,33,88,43,042,42*69
$GAGSV,2,1,08,101,19,097,32,103,08,329,32,105,23,279,33,110,06,182,26*67
$GAGSV,2,2,08,124,48,294,32,126,26,045,37,131,73,066,32,133,49,104,36*6B
$BDGSV,2,1,07,211,71,130,29,212,44,057,31,213,21,073,23,223,62,300,37*66
$BDGSV,2,2,07,224,06,126,20,225,62,134,35,234,61,073,35*6B
$GPGSA,A,3,29,31,25,02,22,26,12,11,18,32,,,0.8,0.4,0.6*3B
$GNGSA,A,3,70,71,79,80,81,88,,,,,,,0.8,0.4,0.6*28
$GAGSA,A,3,101,103,110,124,131,133,,,,,,,0.8,0.4,0.6*2E
$BDGSA,A,3,224,225,,,,,,,,,,,0.8,0.4,0.6*28
$GPRMC,170126.000,A,4633.8001,N,00023.1201,E,3.4,114.9,060123,,,A*69
$GPGGA,170127.000,4633.7999,N,00023.1212,E,1,24,0.4,110.5,M,48.4,M,,*5C
$GPVTG,102.7,T,,M,3.1,N,5.7,K,A*09
$GPGSV,3,1,10,02,44,133,42,11,18,042,34,12,22,090,33,18,14,170,30*74
$GPGSV,3,2,10,22,27,251,38,25,51,087,37,26,24,286,35,29,85,116,38*7A
$GPGSV,3,3,10,31,61,286,36,32,12,220,33,36,28,140,36*49
$GLGSV,2,1,08,70,12,301,23,71,08,349,32,78,38,110,34,79,74,005,35*65
$GLGSV,2,2,08,80,25,312,34,81,66,153,41,82,21,191,33,88,43,042,41*6A
$GAGSV,2,1,08,101,19,097,31,103,08,329,32,105,23,279,33,110,06,182,26*64
$GAGSV,2,2,08,124,48,294,32,126,26,045,36,131,73,066,33,133,49,104,36*6B
$BDGSV,2,1,07,211,71,130,36,212,44,057,30,213,21,073,23,223,62,300,37*69
$BDGSV,2,2,07,224,06,126,20,225,62,134,35,234,61,073,36*68
$GPGSA,A,3,29,31,25,02,22,26,12,11,18,32,,,0.8,0.4,0.6*3B
$GNGSA,A,3,70,71,79,80,81,88,,,,,,,0.8,0.4,0.6*28
$GAGSA,A,3,101,103,110,124,131,133,,,,,,,0.8,0.4,0.6*2E
$BDGSA,A,3,224,225,,,,,,,,,,,0.8,0.4,0.6*28
$GPRMC,170127.000,A,4633.7999,N,00023.1212,E,3.1,102.7,060123,,,A*61
$GPGGA,170128.000,4633.8002,N,00023.1227,E,1,24,0.4,110.8,M,48.4,M,,*5C
$GPVTG,81.8,T,,M,3.8,N,7.0,K,A*30
$GPGSV,3,1,10,02,44,133,42,11,18,042,34,12,22,090,33,18,14,170,29*7C
$GPGSV,3,2,10,22,27,251,37,25,51,087,38,26,24,286,35,29,85,116,37*75
$GPGSV,3,3,10,31,61,286,36,32,12,220,33,36,28,140,36*49
$GLGSV,2,1,08,70,12,301,23,71,08,349,32,78,38,110,39,79,74,005,34*69
$GLGSV,2,2,08,80,25,312,35,81,66,153,41,82,21,191,33,88,43,042,41*6B
$GAGSV,2,1,08,101,19,098,31,103,08,329,32,105,23,279,33,110,06,182,26*6B
$GAGSV,2,2,08,124,48,294,32,126,26,045,36,131,73,066,37,133,49,104,36*6F
$BDGSV,2,1,07,211,71,130,41,212,44,057,30,213,21,073,23,223,62,300,37*69
$BDGSV,2,2,07,224,06,126,20,225,62,134,40,234,61,073,37*6B
$GPGSA,A,3,29,31,25,02,22,26,12,11,18,32,,,0.8,0.4,0.6*3B
$GNGSA,A,3,70,71,79,80,81,88,,,,,,,0.8,0.4,0.6*28
$GAGSA,A,3,101,103,110,124,131,133,,,,,,,0.8,0.4,0.6*2E
$BDGSA,A,3,224,225,,,,,,,,,,,0.8,0.4,0.6*28
$GPRMC,170128.000,A,4633.8002,N,00023.1227,E,3.8,81.8,060123,,,A*50
$GPGGA,170129.000,4633.8006,N,00023.1242,E,1,24,0.4,111.0,M,48.4,M,,*53
$GPVTG,67.5,T,,M,3.9,N,7.2,K,A*36
$GPGSV,3,1,10,02,44,133,42,11,18,042,34,12,22,090,33,18,14,170,29*7C
$GPGSV,3,2,10,22,27,251,37,25,51,087,39,26,24,286,35,29,85,116,37*74
$GPGSV,3,3,10,31,61,286,36,32,12,220,33,36,28,140,36*49
$GLGSV,2,1,08,70,12,301,23,71,08,349,32,78,38,110,39,79,74,005,35*68
$GLGSV,2,2,08,80,25,312,36,81,66,153,41,82,21,191,33,88,43,042,41*68
$GAGSV,2,1,08,101,19,098,31,103,08,329,31,105,23,279,33,110,06,182,26*68
$GAGSV,2,2,08,124,48,294,32,126,26,045,36,131,73,066,37,133,49,104,36*6F
$BDGSV,2,1,07,211,71,129,41,212,44,057,29,213,21,073,23,223,62,300,37*69
$BDGSV,2,2,07,224,06,126,19,225,62,134,40,234,61,073,37*61
$GPGSA,A,3,29,31,25,02,22,26,12,11,18,32,,,0.8,0.4,0.6*3B
$GNGSA,A,3,70,71,79,80,81,88,,,,,,,0.8,0.4,0.6*28
$GAGSA,A,3,101,103,110,124,131,133,,,,,,,0.8,0.4,0.6*2E
$BDGSA,A,3,224,225,,,,,,,,,,,0.8,0.4,0.6*28
$GPRMC,170129.000,A,4633.8006,N,00023.1242,E,3.9,67.5,060123,,,A*52
$GPGGA,170130.000,4633.8015,N,00023.1256,E,1,24,0.4,110.9,M,48.4,M,,*54
$GPVTG,51.8,T,,M,4.9,N,9.0,K,A*35
$GPGSV,3,1,10,02,44,133,41,11,18,042,34,12,22,090,33,18,14,170,29*7F
$GPGSV,3,2,10,22,27,251,36,25,51,087,39,26,24,286,35,29,85,116,37*75
$GPGSV,3,3,10,31,61,286,36,32,12,220,33,36,28,140,36*49
$GLGSV,2,1,08,70,12,301,23,71,08,349,32,78,38,110,39,79,74,005,35*68
$GLGSV,2,2,08,80,25,312,36,81,66,153,40,82,21,191,33,88,43,042,41*69
$GAGSV,2,1,08,101,19,098,31,103,08,329,31,105,23,279,33,110,06,182,25*6B
$GAGSV,2,2,08,124,48,294,32,126,26,045,36,131,73,066,36,133,49,104,36*6E
$BDGSV,2,1,07,211,71,129,41,212,44,057,29,213,21,073,24,223,62,300,37*6E
$BDGSV,2,2,07,224,06,126,19,225,62,134,40,234,61,073,37*61
$GPGSA,A,3,29,31,25,02,22,26,12,11,18,32,,,0.8,0.4,0.6*3B
$GNGSA,A,3,70,71,79,80,81,88,,,,,,,0.8,0.4,0.6*28
$GAGSA,A,3,101,103,110,124,131,133,,,,,,,0.8,0.4,0.6*2E
$BDGSA,A,3,224,225,,,,,,,,,,,0.8,0.4,0.6*28
$GPRMC,170130.000,A,4633.8015,N,00023.1256,E,4.9,51.8,060123,,,A*52
$GPGGA,170131.000,4633.8030,N,00023.1273,E,1,24,0.4,110.6,M,48.4,M,,*5A
$GPVTG,46.3,T,,M,5.6,N,10.3,K,A*0D
$GPGSV,3,1,10,02,44,133,41,11,18,042,33,12,22,090,33,18,14,170,29*78
$GPGSV,3,2,10,22,27,251,36,25,51,087,39,26,24,286,35,29,85,116,36*74
$GPGSV,3,3,10,31,61,286,36,32,12,220,33,36,28,140,35*4A
$GLGSV,2,1,08,70,12,301,24,71,08,349,35,78,38,110,39,79,74,005,35*68
$GLGSV,2,2,08,80,25,312,36,81,66,153,40,82,21,191,33,88,43,042,41*69
$GAGSV,2,1,08,101,19,098,31,103,08,329,31,105,23,279,33,110,06,182,25*6B
$GAGSV,2,2,08,124,48,294,32,126,26,045,36,131,73,066,36,133,49,104,37*6F
$BDGSV,2,1,07,211,71,129,40,212,44,057,28,213,21,073,27,223,62,300,37*6D
$BDGSV,2,2,07,224,06,126,19,225,62,134,40,234,61,073,37*61
$GPGSA,A,3,29,31,25,02,22,26,12,11,18,32,,,0.8,0.4,0.6*3B
$GNGSA,A,3,70,71,79,80,81,88,,,,,,,0.8,0.4,0.6*28
$GAGSA,A,3,101,103,110,124,131,133,,,,,,,0.8,0.4,0.6*2E
$BDGSA,A,3,224,225,,,,,,,,,,,0.8,0.4,0.6*28
$GPRMC,170131.000,A,4633.8030,N,00023.1273,E,5.6,46.3,060123,,,A*50
$GPGGA,170132.000,4633.8044,N,00023.1294,E,1,24,0.4,110.2,M,48.4,M,,*57
$GPVTG,46.0,T,,M,5.6,N,10.4,K,A*09
$GPGSV,3,1,10,02,44,133,41,11,18,042,33,12,22,090,33,18,14,170,30*70
$GPGSV,3,2,10,22,27,251,36,25,51,087,39,26,24,286,34,29,85,116,36*75
$GPGSV,3,3,10,31,61,286,36,32,12,220,33,36,28,140,35*4A
$GLGSV,2,1,08,70,12,301,24,71,08,349,38,78,38,110,39,79,74,005,35*65
$GLGSV,2,2,08,80,25,312,36,81,66,153,40,82,21,191,32,88,43,042,41*68
$GAGSV,2,1,08,101,19,098,31,103,08,329,31,105,23,279,32,110,06,182,25*6A
$GAGSV,2,2,08,124,48,294,32,126,26,045,36,131,73,066,36,133,49,104,37*6F
$BDGSV,2,1,07,211,71,129,40,212,44,057,28,213,21,073,27,223,62,300,37*6D
$BDGSV,2,2,07,224,06,126,19,225,62,134,39,234,61,073,38*60
$GPGSA,A,3,29,31,25,02,22,26,12,11,18,32,,,0.8,0.4,0.6*3B
$GNGSA,A,3,70,71,79,80,81,88,,,,,,,0.8,0.4,0.6*28
$GAGSA,A,3,101,103,110,124,131,133,,,,,,,0.8,0.4,0.6*2E
$BDGSA,A,3,224,225,,,,,,,,,,,0.8,0.4,0.6*28
$GPRMC,170132.000,A,4633.8044,N,00023.1294,E,5.6,46.0,060123,,,A*5A
$GPGGA,170133.000,4633.8057,N,00023.1308,E,1,24,0.4,109.8,M,48.4,M,,*52
$GPVTG,43.8,T,,M,5.6,N,10.4,K,A*04
$GPGSV,3,1,10,02,44,133,40,11,18,041,33,12,21,090,33,18,14,170,38*79
$GPGSV,3,2,10,22,27,251,36,25,51,087,39,26,24,286,39,29,85,116,36*78
$GPGSV,3,3,10,31,61,286,36,32,12,220,33,36,28,140,35*4A
$GLGSV,2,1,08,70,12,301,24,71,08,349,38,78,38,110,39,79,74,005,35*65
$GLGSV,2,2,08,80,25,312,42,81,66,153,40,82,21,191,32,88,43,042,41*6B
$GAGSV,2,1,08,101,19,098,31,103,08,329,31,105,23,279,32,110,06,182,25*6A
$GAGSV,2,2,08,124,48,294,32,126,26,045,36,131,73,066,35,133,49,104,37*6C
$BDGSV,2,1,07,211,71,129,40,212,44,057,28,213,21,073,27,223,62,300,37*6D
$BDGSV,2,2,07,224,06,126,19,225,62,134,39,234,61,073,39*61
$GPGSA,A,3,29,31,25,02,22,26,12,11,18,32,,,0.8,0.4,0.6*3B
$GNGSA,A,3,70,71,79,80,81,88,,,,,,,0.8,0.4,0.6*28
$GAGSA,A,3,101,103,110,124,131,133,,,,,,,0.8,0.4,0.6*2E
$BDGSA,A,3,224,225,,,,,,,,,,,0.8,0.4,0.6*28
$GPRMC,170133.000,A,4633.8057,N,00023.1308,E,5.6,43.8,060123,,,A*50
$GPGGA,170134.000,4633.8069,N,00023.1323,E,1,23,0.4,109.9,M,48.4,M,,*57
$GPVTG,43.2,T,,M,5.8,N,10.7,K,A*03
$GPGSV,3,1,10,02,44,133,40,11,18,041,33,12,21,090,33,18,14,170,38*79
$GPGSV,3,2,10,22,27,251,35,25,51,087,39,26,24,286,41,29,85,116,36*74
$GPGSV,3,3,10,31,61,286,35,32,12,220,33,36,28,140,35*49
$GLGSV,2,1,08,70,12,301,24,71,08,349,38,78,38,110,39,79,74,005,35*65
$GLGSV,2,2,08,80,25,312,43,81,66,153,40,82,21,191,32,88,43,042,41*6A
$GAGSV,2,1,08,101,19,098,31,103,08,329,31,105,23,279,31,110,06,182,24*68
$GAGSV,2,2,08,124,48,294,33,126,26,045,35,131,73,066,35,133,49,104,37*6E
$BDGSV,2,1,07,211,71,129,40,212,44,057,27,213,21,073,27,223,62,300,38*6D
$BDGSV,2,2,07,224,06,126,25,225,62,134,40,234,61,073,40*6E
$GPGSA,A,3,29,31,25,02,22,26,12,11,18,32,,,0.8,0.4,0.6*3B
$GNGSA,A,3,71,79,80,81,88,,,,,,,,0.8,0.4,0.6*2F
$GAGSA,A,3,101,103,110,124,131,133,,,,,,,0.8,0.4,0.6*2E
$BDGSA,A,3,224,225,,,,,,,,,,,0.8,0.4,0.6*28
$GPRMC,170134.000,A,4633.8069,N,00023.1323,E,5.8,43.2,060123,,,A*57
$GPGGA,170135.000,4633.8082,N,00023.1341,E,1,24,0.4,110.3,M,48.4,M,,*52
$GPVTG,43.6,T,,M,6.1,N,11.3,K,A*08
$GPGSV,3,1,10,02,44,133,39,11,18,041,33,12,21,090,33,18,14,170,38*77
$GPGSV,3,2,10,22,27,251,35,25,51,087,39,26,24,286,42,29,85,116,35*74
$GPGSV,3,3,10,31,61,286,35,32,12,220,32,36,28,140,35*48
$GLGSV,2,1,08,70,12,301,24,71,08,349,38,78,38,110,39,79,74,005,35*65
$GLGSV,2,2,08,80,25,312,43,81,66,153,40,82,21,191,32,88,43,042,41*6A
$GAGSV,2,1,08,101,19,098,31,103,08,329,31,105,23,279,30,110,06,182,24*69
$GAGSV,2,2,08,124,48,294,38,126,26,045,35,131,73,066,35,133,49,104,38*6A
